"obsDt","lng","locName","obsValid","comName","obsReviewed","sciName","locationPrivate","howMany","lat","locID","id"
"2016-02-15 06:49",-116.3122084,"Ash Meadows National Wildlife Refuge, Amargosa Valley,",TRUE,"Golden Eagle",FALSE,"Aquila chrysaetos",TRUE,1,36.4181034,"L2470979","Aquila chrysaetos 2016-02-15 06:49 L2470979"
"2016-02-14 09:21",-115.0544178,"Cornerstone Park",TRUE,"Golden Eagle",FALSE,"Aquila chrysaetos",FALSE,1,36.0369429,"L2753168","Aquila chrysaetos 2016-02-14 09:21 L2753168"
"2016-02-13 11:36",-114.25132,"Upper Lehman Cr. C.G.",TRUE,"Golden Eagle",FALSE,"Aquila chrysaetos",TRUE,1,39.013206,"L151648","Aquila chrysaetos 2016-02-13 11:36 L151648"
"2016-02-13 06:40",-115.0171566,"Highway 318, south of Lund.",TRUE,"Golden Eagle",FALSE,"Aquila chrysaetos",TRUE,1,38.4801338,"L4249462","Aquila chrysaetos 2016-02-13 06:40 L4249462"
"2016-02-12 12:03",-115.9438705,"Mountain Falls Back Pond & Agricultural Field",TRUE,"Golden Eagle",FALSE,"Aquila chrysaetos",TRUE,1,36.1456378,"L1943753","Aquila chrysaetos 2016-02-12 12:03 L1943753"
"2016-02-12 11:35",-119.7214723,"Prison Hill",TRUE,"Golden Eagle",FALSE,"Aquila chrysaetos",TRUE,1,39.1243674,"L4256511","Aquila chrysaetos 2016-02-12 11:35 L4256511"
"2016-02-10 13:12",-114.6877813,"Jackpot Rest Area",TRUE,"Golden Eagle",FALSE,"Aquila chrysaetos",TRUE,1,41.9433842,"L1035588","Aquila chrysaetos 2016-02-10 13:12 L1035588"
"2016-02-10 11:17",-116.1280954,"Carlin Nature Pond",TRUE,"Golden Eagle",FALSE,"Aquila chrysaetos",TRUE,1,40.7127035,"L814752","Aquila chrysaetos 2016-02-10 11:17 L814752"
"2016-02-07 09:28",-119.69508,"Pyramid Lake--Willows",TRUE,"Golden Eagle",FALSE,"Aquila chrysaetos",TRUE,1,40.07421,"L3974006","Aquila chrysaetos 2016-02-07 09:28 L3974006"
"2016-02-03 15:30",-119.709692,"K",TRUE,"Golden Eagle",FALSE,"Aquila chrysaetos",TRUE,1,40.1007255,"L4218452","Aquila chrysaetos 2016-02-03 15:30 L4218452"
"2016-01-30 08:45",-119.4534767,"Popcorn Beach and mudflats",TRUE,"Golden Eagle",FALSE,"Aquila chrysaetos",TRUE,1,39.847373,"L4204310","Aquila chrysaetos 2016-01-30 08:45 L4204310"
"2016-01-28 08:00",-115.1205987,"Pahranagat NWR--Headquarters",TRUE,"Golden Eagle",FALSE,"Aquila chrysaetos",FALSE,NA,37.2685716,"L517161","Aquila chrysaetos 2016-01-28 08:00 L517161"
"2016-01-27 11:49",-119.856496,"Swan Lake Nature Study Area (IBA)--Boardwalk",TRUE,"Golden Eagle",FALSE,"Aquila chrysaetos",FALSE,1,39.6531916,"L3572935","Aquila chrysaetos 2016-01-27 11:49 L3572935"
"2016-01-24",-119.5987344,"Pyramid Lake--Sutcliffe Marina",TRUE,"Golden Eagle",FALSE,"Aquila chrysaetos",FALSE,1,39.9551322,"L869295","Aquila chrysaetos 2016-01-24 L869295"
"2016-01-22",-119.816401,"345 Parr Blvd",TRUE,"Golden Eagle",FALSE,"Aquila chrysaetos",TRUE,1,39.5722313,"L4189632","Aquila chrysaetos 2016-01-22 L4189632"
"2016-01-20 14:40",-119.831905,"Idlewild Park",TRUE,"Golden Eagle",FALSE,"Aquila chrysaetos",FALSE,2,39.5208387,"L345149","Aquila chrysaetos 2016-01-20 14:40 L345149"
"2016-02-14 14:13",-114.15164,"Baker, Nevada 487",TRUE,"Bald Eagle",FALSE,"Haliaeetus leucocephalus",TRUE,1,39.04511,"L2657482","Haliaeetus leucocephalus 2016-02-14 14:13 L2657482"
"2016-02-14 13:05",-119.8319149,"Genoa Lane and Foothill Drive fields",TRUE,"Bald Eagle",FALSE,"Haliaeetus leucocephalus",TRUE,1,38.9955066,"L2035757","Haliaeetus leucocephalus 2016-02-14 13:05 L2035757"
"2016-02-14 11:15",-119.8308849,"Swan Lake - east side",TRUE,"Bald Eagle",FALSE,"Haliaeetus leucocephalus",TRUE,1,39.6636253,"L2951584","Haliaeetus leucocephalus 2016-02-14 11:15 L2951584"
"2016-02-14 09:45",-119.8329449,"Wilson Commons",TRUE,"Bald Eagle",FALSE,"Haliaeetus leucocephalus",TRUE,2,39.2642909,"L4263453","Haliaeetus leucocephalus 2016-02-14 09:45 L4263453"
"2016-02-14 09:10",-119.8347473,"Lemmon Valley WTP",TRUE,"Bald Eagle",FALSE,"Haliaeetus leucocephalus",FALSE,1,39.6503269,"L875241","Haliaeetus leucocephalus 2016-02-14 09:10 L875241"
"2016-02-13 10:46",-119.7787642,"Highway 88 and Centerville Ln.",TRUE,"Bald Eagle",FALSE,"Haliaeetus leucocephalus",TRUE,2,38.9115058,"L4028740","Haliaeetus leucocephalus 2016-02-13 10:46 L4028740"
"2016-02-13 10:45",-119.7171593,"Rio Wrangler Pkwy - Drive",TRUE,"Bald Eagle",FALSE,"Haliaeetus leucocephalus",TRUE,1,39.4361709,"L3732442","Haliaeetus leucocephalus 2016-02-13 10:45 L3732442"
"2016-02-13 10:00",-114.9634695,"Highway 93, S of Wells.",TRUE,"Bald Eagle",FALSE,"Haliaeetus leucocephalus",TRUE,2,40.9500523,"L4252125","Haliaeetus leucocephalus 2016-02-13 10:00 L4252125"
"2016-02-12 14:00",-119.8251343,"Carson Valley near Genoa, NV",TRUE,"Bald Eagle",FALSE,"Haliaeetus leucocephalus",TRUE,2,38.9850328,"L1984379","Haliaeetus leucocephalus 2016-02-12 14:00 L1984379"
"2016-02-12 13:00",-119.8230743,"Home",TRUE,"Bald Eagle",FALSE,"Haliaeetus leucocephalus",TRUE,1,39.2400313,"L4223297","Haliaeetus leucocephalus 2016-02-12 13:00 L4223297"
"2016-02-12 08:00",-119.8330479,"Foothill Road",TRUE,"Bald Eagle",FALSE,"Haliaeetus leucocephalus",TRUE,2,38.9837785,"L4252003","Haliaeetus leucocephalus 2016-02-12 08:00 L4252003"
"2016-02-11 11:43",-119.7295699,"Sparks Marina Park",TRUE,"Bald Eagle",FALSE,"Haliaeetus leucocephalus",FALSE,1,39.5348915,"L269695","Haliaeetus leucocephalus 2016-02-11 11:43 L269695"
"2016-02-10 16:12",-119.763712,"Sparks - Rock Park",TRUE,"Bald Eagle",FALSE,"Haliaeetus leucocephalus",FALSE,1,39.5200308,"L345154","Haliaeetus leucocephalus 2016-02-10 16:12 L345154"
"2016-02-09 10:30",-118.540445,"US-NV-Fallon-Tule Lake - 39.5998x-118.5404",TRUE,"Bald Eagle",FALSE,"Haliaeetus leucocephalus",TRUE,5,39.599769,"L4236142","Haliaeetus leucocephalus 2016-02-09 10:30 L4236142"
"2016-02-07 09:28",-119.69508,"Pyramid Lake--Willows",TRUE,"Bald Eagle",FALSE,"Haliaeetus leucocephalus",TRUE,1,40.07421,"L3974006","Haliaeetus leucocephalus 2016-02-07 09:28 L3974006"
"2016-02-06",-119.8447037,"Swan Lake Nature Study Area (IBA)",TRUE,"Bald Eagle",FALSE,"Haliaeetus leucocephalus",FALSE,1,39.6573151,"L124349","Haliaeetus leucocephalus 2016-02-06 L124349"
"2016-02-05 09:10",-119.823703,"US-NV-Washoe Valley-Toiyabe National Forest - 39.2388x-119.8237",TRUE,"Bald Eagle",FALSE,"Haliaeetus leucocephalus",TRUE,2,39.238792,"L4223404","Haliaeetus leucocephalus 2016-02-05 09:10 L4223404"
"2016-02-04 08:20",-119.1228032,"Mason Valley WMA",TRUE,"Bald Eagle",FALSE,"Haliaeetus leucocephalus",FALSE,1,39.0901674,"L969157","Haliaeetus leucocephalus 2016-02-04 08:20 L969157"
"2016-02-03 10:10",-118.8839149,"Fallon--Big Soda Lake",TRUE,"Bald Eagle",FALSE,"Haliaeetus leucocephalus",FALSE,1,39.5198005,"L385244","Haliaeetus leucocephalus 2016-02-03 10:10 L385244"
"2016-01-29 15:13",-119.7066665,"Riverview Park and Empire Ranch Trail",TRUE,"Bald Eagle",FALSE,"Haliaeetus leucocephalus",TRUE,1,39.164333,"L4090780","Haliaeetus leucocephalus 2016-01-29 15:13 L4090780"
"2016-01-29 10:15",-118.9970398,"Private Ranch-Carson River",TRUE,"Bald Eagle",FALSE,"Haliaeetus leucocephalus",TRUE,5,39.4764856,"L3338833","Haliaeetus leucocephalus 2016-01-29 10:15 L3338833"
"2016-01-28 10:00",-118.578186,"Stillwater NWR",TRUE,"Bald Eagle",FALSE,"Haliaeetus leucocephalus",FALSE,2,39.523111,"L598208","Haliaeetus leucocephalus 2016-01-28 10:00 L598208"
"2016-01-28 08:45",-118.4736842,"Stillwater WMA",TRUE,"Bald Eagle",FALSE,"Haliaeetus leucocephalus",FALSE,2,39.6290027,"L277761","Haliaeetus leucocephalus 2016-01-28 08:45 L277761"
"2016-01-27 09:00",-119.7185326,"Damonte Ranch Wetlands",TRUE,"Bald Eagle",FALSE,"Haliaeetus leucocephalus",FALSE,1,39.4275085,"L506053","Haliaeetus leucocephalus 2016-01-27 09:00 L506053"
"2016-01-24 11:30",-119.7709912,"Jake's Wetland",TRUE,"Bald Eagle",FALSE,"Haliaeetus leucocephalus",TRUE,1,38.9627791,"L4188477","Haliaeetus leucocephalus 2016-01-24 11:30 L4188477"
"2016-01-24",-119.443531,"Pyramid Lake Delta",TRUE,"Bald Eagle",FALSE,"Haliaeetus leucocephalus",FALSE,1,39.8547403,"L269367","Haliaeetus leucocephalus 2016-01-24 L269367"
"2016-01-20 09:10",-119.6950783,"Pyramid Lake--Willows",TRUE,"Bald Eagle",FALSE,"Haliaeetus leucocephalus",FALSE,1,40.0742094,"L269368","Haliaeetus leucocephalus 2016-01-20 09:10 L269368"
"2016-01-20 09:00",-114.7968936,"Lake Mead NRA--Boulder Beach",TRUE,"Bald Eagle",FALSE,"Haliaeetus leucocephalus",FALSE,NA,36.0449872,"L866916","Haliaeetus leucocephalus 2016-01-20 09:00 L866916"
"2016-02-16 12:20",-118.6883068,"S. Harmon Rd.",TRUE,"Red-tailed Hawk",FALSE,"Buteo jamaicensis",TRUE,3,39.454354,"L2595620","Buteo jamaicensis 2016-02-16 12:20 L2595620"
"2016-02-16 10:37",-119.856496,"Swan Lake Nature Study Area (IBA)--Boardwalk",TRUE,"Red-tailed Hawk",FALSE,"Buteo jamaicensis",FALSE,2,39.6531916,"L3572935","Buteo jamaicensis 2016-02-16 10:37 L3572935"
"2016-02-16 09:25",-118.6753464,"Indian Lakes",TRUE,"Red-tailed Hawk",FALSE,"Buteo jamaicensis",TRUE,4,39.5878388,"L3113250","Buteo jamaicensis 2016-02-16 09:25 L3113250"
"2016-02-16 09:04",-119.1228032,"Mason Valley WMA",TRUE,"Red-tailed Hawk",FALSE,"Buteo jamaicensis",FALSE,12,39.0901674,"L969157","Buteo jamaicensis 2016-02-16 09:04 L969157"
"2016-02-16 07:30",-115.1126862,"Las Vegas Urban--Sunset Park",TRUE,"Red-tailed Hawk",FALSE,"Buteo jamaicensis",FALSE,NA,36.0685619,"L456488","Buteo jamaicensis 2016-02-16 07:30 L456488"
"2016-02-15 14:00",-114.10722,"Baker, Grand Army of the Republic Highway",TRUE,"Red-tailed Hawk",FALSE,"Buteo jamaicensis",TRUE,4,39.06152,"L2657742","Buteo jamaicensis 2016-02-15 14:00 L2657742"
"2016-02-15 13:49",-119.8256171,"Rancho San Rafael Park",TRUE,"Red-tailed Hawk",FALSE,"Buteo jamaicensis",FALSE,2,39.5464016,"L130617","Buteo jamaicensis 2016-02-15 13:49 L130617"
"2016-02-15 13:30",-119.9298048,"Sand Harbor SP",TRUE,"Red-tailed Hawk",FALSE,"Buteo jamaicensis",FALSE,1,39.1958773,"L866939","Buteo jamaicensis 2016-02-15 13:30 L866939"
"2016-02-15 13:30",-119.7332954,"UNR Agriculture Fields",TRUE,"Red-tailed Hawk",FALSE,"Buteo jamaicensis",FALSE,5,39.5078154,"L874810","Buteo jamaicensis 2016-02-15 13:30 L874810"
"2016-02-15 13:21",-114.1242385,"Baker Ranch",TRUE,"Red-tailed Hawk",FALSE,"Buteo jamaicensis",TRUE,1,39.0250517,"L3392877","Buteo jamaicensis 2016-02-15 13:21 L3392877"
"2016-02-15 13:00",-114.96158,"Clark",TRUE,"Red-tailed Hawk",FALSE,"Buteo jamaicensis",TRUE,3,35.92638,"L112515","Buteo jamaicensis 2016-02-15 13:00 L112515"
"2016-02-15 11:30",-119.9299094,"beach",TRUE,"Red-tailed Hawk",FALSE,"Buteo jamaicensis",TRUE,1,39.2004377,"L4280267","Buteo jamaicensis 2016-02-15 11:30 L4280267"
"2016-02-15 11:21",-119.795448,"Little Washoe Lake",TRUE,"Red-tailed Hawk",FALSE,"Buteo jamaicensis",FALSE,2,39.326755,"L320340","Buteo jamaicensis 2016-02-15 11:21 L320340"
"2016-02-15 10:00",-119.8448839,"Old NW Reno",TRUE,"Red-tailed Hawk",FALSE,"Buteo jamaicensis",TRUE,1,39.5465127,"L3101332","Buteo jamaicensis 2016-02-15 10:00 L3101332"
"2016-02-15 10:00",-119.7996855,"Kings canyon road",TRUE,"Red-tailed Hawk",FALSE,"Buteo jamaicensis",TRUE,2,39.1586506,"L4272689","Buteo jamaicensis 2016-02-15 10:00 L4272689"
"2016-02-15 09:35",-118.8137054,"Curry Rd. Residence",TRUE,"Red-tailed Hawk",FALSE,"Buteo jamaicensis",TRUE,3,39.3743835,"L2118679","Buteo jamaicensis 2016-02-15 09:35 L2118679"
"2016-02-15 09:30",-116.0150242,"Blagg Road and W. Basin Road",TRUE,"Red-tailed Hawk",FALSE,"Buteo jamaicensis",TRUE,1,36.2204569,"L3395348","Buteo jamaicensis 2016-02-15 09:30 L3395348"
"2016-02-15 09:30",-116.44761,"Beowawe, Nevada",TRUE,"Red-tailed Hawk",FALSE,"Buteo jamaicensis",TRUE,1,40.6650647,"L4279009","Buteo jamaicensis 2016-02-15 09:30 L4279009"
"2016-02-15 09:24",-119.7564054,"Diamond Creek Pond",TRUE,"Red-tailed Hawk",FALSE,"Buteo jamaicensis",FALSE,1,39.44254,"L3238235","Buteo jamaicensis 2016-02-15 09:24 L3238235"
"2016-02-15 09:15",-118.7313938,"NAS Fallon Nature Trail",TRUE,"Red-tailed Hawk",FALSE,"Buteo jamaicensis",TRUE,1,39.4558783,"L729583","Buteo jamaicensis 2016-02-15 09:15 L729583"
"2016-02-15 09:14",-119.9964426,"Crystal Peak Park",TRUE,"Red-tailed Hawk",FALSE,"Buteo jamaicensis",FALSE,1,39.5156616,"L2865090","Buteo jamaicensis 2016-02-15 09:14 L2865090"
"2016-02-15 08:03",-119.7184521,"home",TRUE,"Red-tailed Hawk",FALSE,"Buteo jamaicensis",TRUE,3,39.6347289,"L4243656","Buteo jamaicensis 2016-02-15 08:03 L4243656"
"2016-02-15 07:36",-119.9939418,"Verdi",TRUE,"Red-tailed Hawk",FALSE,"Buteo jamaicensis",TRUE,1,39.5243027,"L2193882","Buteo jamaicensis 2016-02-15 07:36 L2193882"
"2016-02-15 06:49",-116.3122084,"Ash Meadows National Wildlife Refuge, Amargosa Valley,",TRUE,"Red-tailed Hawk",FALSE,"Buteo jamaicensis",TRUE,1,36.4181034,"L2470979","Buteo jamaicensis 2016-02-15 06:49 L2470979"
"2016-02-15 06:45",-118.7432671,"Henry's Farm",TRUE,"Red-tailed Hawk",FALSE,"Buteo jamaicensis",TRUE,2,39.4565852,"L4271966","Buteo jamaicensis 2016-02-15 06:45 L4271966"
"2016-02-14 18:35",-119.8393969,"Sagittarius",TRUE,"Red-tailed Hawk",FALSE,"Buteo jamaicensis",TRUE,2,39.5003375,"L1945618","Buteo jamaicensis 2016-02-14 18:35 L1945618"
"2016-02-14 15:37",-119.7066665,"Riverview Park and Empire Ranch Trail",TRUE,"Red-tailed Hawk",FALSE,"Buteo jamaicensis",TRUE,3,39.164333,"L4090780","Buteo jamaicensis 2016-02-14 15:37 L4090780"
"2016-02-14 14:52",-119.7462103,"Mira Loma",TRUE,"Red-tailed Hawk",FALSE,"Buteo jamaicensis",TRUE,1,39.48617,"L4280193","Buteo jamaicensis 2016-02-14 14:52 L4280193"
"2016-02-14 14:13",-114.15164,"Baker, Nevada 487",TRUE,"Red-tailed Hawk",FALSE,"Buteo jamaicensis",TRUE,1,39.04511,"L2657482","Buteo jamaicensis 2016-02-14 14:13 L2657482"
"2016-02-14 14:12",-119.83946,"Home (Reno)",TRUE,"Red-tailed Hawk",FALSE,"Buteo jamaicensis",TRUE,1,39.50959,"L3249691","Buteo jamaicensis 2016-02-14 14:12 L3249691"
"2016-02-14 13:47",-119.8207998,"Muller Lane, Carson Valley",TRUE,"Red-tailed Hawk",FALSE,"Buteo jamaicensis",TRUE,6,38.9710055,"L3277223","Buteo jamaicensis 2016-02-14 13:47 L3277223"
"2016-02-14 13:05",-119.8319149,"Genoa Lane and Foothill Drive fields",TRUE,"Red-tailed Hawk",FALSE,"Buteo jamaicensis",TRUE,1,38.9955066,"L2035757","Buteo jamaicensis 2016-02-14 13:05 L2035757"
"2016-02-14 12:55",-119.7271585,"Rosewood Lakes",TRUE,"Red-tailed Hawk",FALSE,"Buteo jamaicensis",FALSE,4,39.4943712,"L861460","Buteo jamaicensis 2016-02-14 12:55 L861460"
"2016-02-14 12:22",-119.7647148,"Washoe Lake SP--Deadman's Creek",TRUE,"Red-tailed Hawk",FALSE,"Buteo jamaicensis",FALSE,1,39.2380141,"L1192444","Buteo jamaicensis 2016-02-14 12:22 L1192444"
"2016-02-14 12:05",-119.8447037,"Swan Lake Nature Study Area (IBA)",TRUE,"Red-tailed Hawk",FALSE,"Buteo jamaicensis",FALSE,3,39.6573151,"L124349","Buteo jamaicensis 2016-02-14 12:05 L124349"
"2016-02-14 12:00",-115.022462,"Las Vegas Urban--Clark County Wetlands Park",TRUE,"Red-tailed Hawk",FALSE,"Buteo jamaicensis",FALSE,1,36.1006947,"L160294","Buteo jamaicensis 2016-02-14 12:00 L160294"
"2016-02-14 11:26",-119.7332203,"Damonte Ranch Wetlands--Veterans Pkwy Lake and Wetlands",TRUE,"Red-tailed Hawk",FALSE,"Buteo jamaicensis",FALSE,4,39.4202899,"L3192597","Buteo jamaicensis 2016-02-14 11:26 L3192597"
"2016-02-14 11:15",-119.9963075,"Crystal Peak Park",TRUE,"Red-tailed Hawk",FALSE,"Buteo jamaicensis",TRUE,2,39.5155776,"L2774021","Buteo jamaicensis 2016-02-14 11:15 L2774021"
"2016-02-14 11:10",-115.9228513,"Mountain Falls Golf Course Pahrump Nevada Nye County",TRUE,"Red-tailed Hawk",FALSE,"Buteo jamaicensis",TRUE,NA,36.1115944,"L4258748","Buteo jamaicensis 2016-02-14 11:10 L4258748"
"2016-02-14 10:30",-119.7054863,"Empire Ranch Trail",TRUE,"Red-tailed Hawk",FALSE,"Buteo jamaicensis",TRUE,5,39.1729248,"L4263614","Buteo jamaicensis 2016-02-14 10:30 L4263614"
"2016-02-14 10:00",-114.1187668,"488 to Border Inn, NV/UT",TRUE,"Red-tailed Hawk",FALSE,"Buteo jamaicensis",TRUE,1,39.0501187,"L2651420","Buteo jamaicensis 2016-02-14 10:00 L2651420"
"2016-02-14 09:45",-119.8329449,"Wilson Commons",TRUE,"Red-tailed Hawk",FALSE,"Buteo jamaicensis",TRUE,5,39.2642909,"L4263453","Buteo jamaicensis 2016-02-14 09:45 L4263453"
"2016-02-14 09:20",-119.7116125,"Pah Rah Green Belt",TRUE,"Red-tailed Hawk",FALSE,"Buteo jamaicensis",TRUE,2,39.5613515,"L2352563","Buteo jamaicensis 2016-02-14 09:20 L2352563"
"2016-02-14 09:10",-119.8347473,"Lemmon Valley WTP",TRUE,"Red-tailed Hawk",FALSE,"Buteo jamaicensis",FALSE,1,39.6503269,"L875241","Buteo jamaicensis 2016-02-14 09:10 L875241"
"2016-02-14 09:00",-119.0890503,"Mason Valley Wildlife Area",TRUE,"Red-tailed Hawk",FALSE,"Buteo jamaicensis",TRUE,11,39.0746437,"L1966378","Buteo jamaicensis 2016-02-14 09:00 L1966378"
"2016-02-14 09:00",-115.9660149,"Plantation Road",TRUE,"Red-tailed Hawk",FALSE,"Buteo jamaicensis",TRUE,1,36.1200638,"L3150992","Buteo jamaicensis 2016-02-14 09:00 L3150992"
"2016-02-14 08:30",-119.756038,"US-NV-Washoe Valley - 39.2687x-119.7560",TRUE,"Red-tailed Hawk",FALSE,"Buteo jamaicensis",TRUE,1,39.268677,"L3987196","Buteo jamaicensis 2016-02-14 08:30 L3987196"
"2016-02-14 08:00",-115.02074,"clark county wetlands park",TRUE,"Red-tailed Hawk",FALSE,"Buteo jamaicensis",TRUE,1,36.0964873,"L4264018","Buteo jamaicensis 2016-02-14 08:00 L4264018"
"2016-02-14 07:38",-115.9771128,"East Basin Avenue, Pahrump Nv. Nye County",TRUE,"Red-tailed Hawk",FALSE,"Buteo jamaicensis",TRUE,1,36.2198107,"L2518438","Buteo jamaicensis 2016-02-14 07:38 L2518438"
"2016-02-14 07:05",-119.7404516,"1340 Muir Drive",TRUE,"Red-tailed Hawk",FALSE,"Buteo jamaicensis",TRUE,1,38.899216,"L3932556","Buteo jamaicensis 2016-02-14 07:05 L3932556"
"2016-02-14 07:00",-119.8401466,"Lemmon Valley Ohio St",TRUE,"Red-tailed Hawk",FALSE,"Buteo jamaicensis",TRUE,2,39.6927804,"L3233723","Buteo jamaicensis 2016-02-14 07:00 L3233723"
"2016-02-13 16:30",-119.7090912,"Riverview Park, Carson City",TRUE,"Red-tailed Hawk",FALSE,"Buteo jamaicensis",TRUE,NA,39.1608136,"L4240276","Buteo jamaicensis 2016-02-13 16:30 L4240276"
"2016-02-13 16:00",-119.7993636,"5425 Mount Rose Highway, Reno",TRUE,"Red-tailed Hawk",FALSE,"Buteo jamaicensis",TRUE,1,39.3911677,"L4238787","Buteo jamaicensis 2016-02-13 16:00 L4238787"
"2016-02-13 16:00",-119.7185326,"Damonte Ranch Wetlands",TRUE,"Red-tailed Hawk",FALSE,"Buteo jamaicensis",FALSE,2,39.4275085,"L506053","Buteo jamaicensis 2016-02-13 16:00 L506053"
"2016-02-13 15:28",-119.7069132,"Carson River Park/Silver Saddle Ranch",TRUE,"Red-tailed Hawk",FALSE,"Buteo jamaicensis",TRUE,1,39.1363102,"L891127","Buteo jamaicensis 2016-02-13 15:28 L891127"
"2016-02-13 14:00",-119.7451454,"St Teresa Wetlands",TRUE,"Red-tailed Hawk",FALSE,"Buteo jamaicensis",TRUE,2,39.1854249,"L4255870","Buteo jamaicensis 2016-02-13 14:00 L4255870"
"2016-02-13 13:30",-119.5668054,"McCarran Ranch (Storey Co.)",TRUE,"Red-tailed Hawk",FALSE,"Buteo jamaicensis",FALSE,1,39.5462299,"L878236","Buteo jamaicensis 2016-02-13 13:30 L878236"
"2016-02-13 13:05",-119.8140182,"Reno",TRUE,"Red-tailed Hawk",FALSE,"Buteo jamaicensis",TRUE,1,39.5296097,"L130603","Buteo jamaicensis 2016-02-13 13:05 L130603"
"2016-02-13 13:00",-119.8620826,"Reno - Caughlin Parkway Trail",TRUE,"Red-tailed Hawk",FALSE,"Buteo jamaicensis",TRUE,2,39.4982543,"L4257135","Buteo jamaicensis 2016-02-13 13:00 L4257135"
"2016-02-13 12:47",-119.799715,"Wal-Mart",TRUE,"Red-tailed Hawk",FALSE,"Buteo jamaicensis",TRUE,1,39.4802783,"L4280244","Buteo jamaicensis 2016-02-13 12:47 L4280244"
"2016-02-13 12:40",-119.1505051,"East Walker River - Lyon",TRUE,"Red-tailed Hawk",FALSE,"Buteo jamaicensis",TRUE,1,38.4318077,"L900613","Buteo jamaicensis 2016-02-13 12:40 L900613"
"2016-02-13 12:30",-119.842,"Bower's Mansion Park",TRUE,"Red-tailed Hawk",FALSE,"Buteo jamaicensis",TRUE,1,39.2848219,"L4255833","Buteo jamaicensis 2016-02-13 12:30 L4255833"
"2016-02-13 11:30",-115.9553289,"East Basin Avenue Pahrump Nevada",TRUE,"Red-tailed Hawk",FALSE,"Buteo jamaicensis",TRUE,1,36.2204569,"L3394694","Buteo jamaicensis 2016-02-13 11:30 L3394694"
"2016-02-13 10:10",-119.7880554,"Reno",TRUE,"Red-tailed Hawk",FALSE,"Buteo jamaicensis",TRUE,1,39.5474709,"L863663","Buteo jamaicensis 2016-02-13 10:10 L863663"
"2016-02-13 10:05",-119.6965485,"douglas house",TRUE,"Red-tailed Hawk",FALSE,"Buteo jamaicensis",TRUE,1,39.5885475,"L4280234","Buteo jamaicensis 2016-02-13 10:05 L4280234"
"2016-02-13 09:45",-119.7693604,"Washoe Lake SP",TRUE,"Red-tailed Hawk",FALSE,"Buteo jamaicensis",FALSE,5,39.2380453,"L476632","Buteo jamaicensis 2016-02-13 09:45 L476632"
"2016-02-13 09:20",-119.8594666,"Galena Creek County Park",TRUE,"Red-tailed Hawk",FALSE,"Buteo jamaicensis",FALSE,1,39.3542106,"L612544","Buteo jamaicensis 2016-02-13 09:20 L612544"
"2016-02-13 09:00",-115.0021416,"Henderson Bird Viewing Preserve",TRUE,"Red-tailed Hawk",FALSE,"Buteo jamaicensis",FALSE,1,36.0749791,"L209342","Buteo jamaicensis 2016-02-13 09:00 L209342"
"2016-02-13 09:00",-119.8230743,"Home",TRUE,"Red-tailed Hawk",FALSE,"Buteo jamaicensis",TRUE,1,39.2400313,"L4223297","Buteo jamaicensis 2016-02-13 09:00 L4223297"
"2016-02-13 08:40",-115.9438705,"Mountain Falls Back Pond & Agricultural Field",TRUE,"Red-tailed Hawk",FALSE,"Buteo jamaicensis",TRUE,1,36.1456378,"L1943753","Buteo jamaicensis 2016-02-13 08:40 L1943753"
"2016-02-13 08:36",-119.868684,"Reno - Caughlin Parkway Trail",TRUE,"Red-tailed Hawk",FALSE,"Buteo jamaicensis",FALSE,1,39.494368,"L3245542","Buteo jamaicensis 2016-02-13 08:36 L3245542"
"2016-02-13 08:05",-119.6538055,"Lockwood Park Trail",TRUE,"Red-tailed Hawk",FALSE,"Buteo jamaicensis",TRUE,2,39.5093551,"L3039693","Buteo jamaicensis 2016-02-13 08:05 L3039693"
"2016-02-13 07:30",-115.266594,"Las Vegas Urban--Floyd Lamb Park at Tule Springs",TRUE,"Red-tailed Hawk",FALSE,"Buteo jamaicensis",FALSE,1,36.3249025,"L139900","Buteo jamaicensis 2016-02-13 07:30 L139900"
"2016-02-13",-118.77699,"Fallon",TRUE,"Red-tailed Hawk",FALSE,"Buteo jamaicensis",TRUE,2,39.47352,"L192562","Buteo jamaicensis 2016-02-13 L192562"
"2016-02-13",-118.578186,"Stillwater NWR",TRUE,"Red-tailed Hawk",FALSE,"Buteo jamaicensis",FALSE,1,39.523111,"L598208","Buteo jamaicensis 2016-02-13 L598208"
"2016-02-12 17:30",-119.763712,"Sparks - Rock Park",TRUE,"Red-tailed Hawk",FALSE,"Buteo jamaicensis",FALSE,1,39.5200308,"L345154","Buteo jamaicensis 2016-02-12 17:30 L345154"
"2016-02-12 16:22",-119.2516999,"US-Nevada-Fernley-44-46 N Canal Dr - 39.591x-119.252",TRUE,"Red-tailed Hawk",FALSE,"Buteo jamaicensis",TRUE,1,39.5914575,"L4246638","Buteo jamaicensis 2016-02-12 16:22 L4246638"
"2016-02-12 15:30",-119.7075462,"Empire Ranch Trail",TRUE,"Red-tailed Hawk",FALSE,"Buteo jamaicensis",TRUE,2,39.1777488,"L4247984","Buteo jamaicensis 2016-02-12 15:30 L4247984"
"2016-02-12 14:30",-119.8258102,"In the neighborhood",TRUE,"Red-tailed Hawk",FALSE,"Buteo jamaicensis",TRUE,4,39.466924,"L1975859","Buteo jamaicensis 2016-02-12 14:30 L1975859"
"2016-02-12 14:15",-115.9647399,"Thousandaire Road off Homestead in Pahrump, Nevada",TRUE,"Red-tailed Hawk",FALSE,"Buteo jamaicensis",TRUE,1,36.1318304,"L2627693","Buteo jamaicensis 2016-02-12 14:15 L2627693"
"2016-02-12 14:00",-119.8251343,"Carson Valley near Genoa, NV",TRUE,"Red-tailed Hawk",FALSE,"Buteo jamaicensis",TRUE,8,38.9850328,"L1984379","Buteo jamaicensis 2016-02-12 14:00 L1984379"
"2016-02-12 11:00",-119.5701141,"MyRanch",TRUE,"Red-tailed Hawk",FALSE,"Buteo jamaicensis",TRUE,1,39.7516245,"L1960154","Buteo jamaicensis 2016-02-12 11:00 L1960154"
"2016-02-12 10:45",-114.4159985,"Overton Wildlife Management Area",TRUE,"Red-tailed Hawk",FALSE,"Buteo jamaicensis",TRUE,NA,36.5164472,"L2503611","Buteo jamaicensis 2016-02-12 10:45 L2503611"
"2016-02-12 10:00",-119.8213261,"Genoa",TRUE,"Red-tailed Hawk",FALSE,"Buteo jamaicensis",TRUE,1,39.0023879,"L4251925","Buteo jamaicensis 2016-02-12 10:00 L4251925"
"2016-02-12 09:00",-117.7394485,"Grass Valley Road",TRUE,"Red-tailed Hawk",FALSE,"Buteo jamaicensis",TRUE,1,40.9510528,"L3375261","Buteo jamaicensis 2016-02-12 09:00 L3375261"
"2016-02-12 08:50",-115.0211585,"Clark County Wetlands Park",TRUE,"Red-tailed Hawk",FALSE,"Buteo jamaicensis",TRUE,2,36.1009028,"L2727767","Buteo jamaicensis 2016-02-12 08:50 L2727767"
"2016-02-12 08:30",-119.7504873,"Dresslerville",TRUE,"Red-tailed Hawk",FALSE,"Buteo jamaicensis",TRUE,2,38.8721778,"L4251976","Buteo jamaicensis 2016-02-12 08:30 L4251976"
"2016-02-12 07:00",-115.7764894,"Ports Backyard",TRUE,"Red-tailed Hawk",FALSE,"Buteo jamaicensis",TRUE,2,40.8310012,"L1812349","Buteo jamaicensis 2016-02-12 07:00 L1812349"
"2016-02-12 07:00",-119.6842994,"Kiley Ranch Preserve",TRUE,"Red-tailed Hawk",FALSE,"Buteo jamaicensis",FALSE,1,39.6172156,"L312482","Buteo jamaicensis 2016-02-12 07:00 L312482"
"2016-02-12 05:00",-115.7723694,"3141 College Ct",TRUE,"Red-tailed Hawk",FALSE,"Buteo jamaicensis",TRUE,2,40.8476982,"L2229939","Buteo jamaicensis 2016-02-12 05:00 L2229939"
"2016-02-12",-114.9709368,"Wells",TRUE,"Red-tailed Hawk",FALSE,"Buteo jamaicensis",FALSE,1,41.1066809,"L873146","Buteo jamaicensis 2016-02-12 L873146"
"2016-02-11 07:30",-115.4588759,"Spring Mountain Ranch SP",TRUE,"Red-tailed Hawk",FALSE,"Buteo jamaicensis",FALSE,NA,36.0690146,"L337028","Buteo jamaicensis 2016-02-11 07:30 L337028"
"2016-02-10 16:11",-119.776979,"US-NV-Minden-2705 US Highway 395 N - 39.0358x-119.7770 gun club",TRUE,"Red-tailed Hawk",FALSE,"Buteo jamaicensis",TRUE,1,39.035777,"L4236209","Buteo jamaicensis 2016-02-10 16:11 L4236209"
"2016-02-10 15:31",-119.831905,"Idlewild Park",TRUE,"Red-tailed Hawk",FALSE,"Buteo jamaicensis",FALSE,1,39.5208387,"L345149","Buteo jamaicensis 2016-02-10 15:31 L345149"
"2016-02-10 11:50",-116.1295009,"Carlin - Humboldt River",TRUE,"Red-tailed Hawk",FALSE,"Buteo jamaicensis",TRUE,1,40.6995928,"L814751","Buteo jamaicensis 2016-02-10 11:50 L814751"
"2016-02-10 11:17",-116.1280954,"Carlin Nature Pond",TRUE,"Red-tailed Hawk",FALSE,"Buteo jamaicensis",TRUE,1,40.7127035,"L814752","Buteo jamaicensis 2016-02-10 11:17 L814752"
"2016-02-10 09:20",-119.940936,"Rabe Meadows",TRUE,"Red-tailed Hawk",FALSE,"Buteo jamaicensis",FALSE,1,38.9738559,"L3614376","Buteo jamaicensis 2016-02-10 09:20 L3614376"
"2016-02-10 07:59",-115.190249,"US-NV-Las Vegas-299-333 S Valley View Blvd - 36.1711x-115.1902",TRUE,"Red-tailed Hawk",FALSE,"Buteo jamaicensis",TRUE,1,36.171091,"L4236830","Buteo jamaicensis 2016-02-10 07:59 L4236830"
"2016-02-10",-119.7023521,"Sparks - Home (Canyon Vista Dr.)",TRUE,"Red-tailed Hawk",FALSE,"Buteo jamaicensis",TRUE,1,39.579421,"L866414","Buteo jamaicensis 2016-02-10 L866414"
"2016-02-09 17:09",-118.4759926,"Lovelock, South Meridian Road",TRUE,"Red-tailed Hawk",FALSE,"Buteo jamaicensis",TRUE,23,40.1321739,"L3157843","Buteo jamaicensis 2016-02-09 17:09 L3157843"
"2016-02-09 16:46",-118.5780487,"Derby Field Area",TRUE,"Red-tailed Hawk",FALSE,"Buteo jamaicensis",TRUE,7,40.0833939,"L1325891","Buteo jamaicensis 2016-02-09 16:46 L1325891"
"2016-02-09 10:48",-114.9497795,"Wetlands Park - Wells Trailhead",TRUE,"Red-tailed Hawk",FALSE,"Buteo jamaicensis",TRUE,1,36.0950945,"L4233714","Buteo jamaicensis 2016-02-09 10:48 L4233714"
"2016-02-09 07:30",-114.9564743,"Las Vegas Wash Wells Trail Head",TRUE,"Red-tailed Hawk",FALSE,"Buteo jamaicensis",TRUE,NA,36.0942463,"L4217632","Buteo jamaicensis 2016-02-09 07:30 L4217632"
"2016-02-08 15:48",-119.7349799,"Boynton Slough",TRUE,"Red-tailed Hawk",FALSE,"Buteo jamaicensis",TRUE,2,39.4937875,"L3928418","Buteo jamaicensis 2016-02-08 15:48 L3928418"
"2016-02-08 13:45",-119.846535,"Oxbow Park",TRUE,"Red-tailed Hawk",FALSE,"Buteo jamaicensis",FALSE,1,39.518784,"L157052","Buteo jamaicensis 2016-02-08 13:45 L157052"
"2016-02-07 11:30",-119.823703,"US-NV-Washoe Valley-Toiyabe National Forest - 39.2388x-119.8237",TRUE,"Red-tailed Hawk",FALSE,"Buteo jamaicensis",TRUE,3,39.238792,"L4223404","Buteo jamaicensis 2016-02-07 11:30 L4223404"
"2016-02-07 09:28",-119.69508,"Pyramid Lake--Willows",TRUE,"Red-tailed Hawk",FALSE,"Buteo jamaicensis",TRUE,1,40.07421,"L3974006","Buteo jamaicensis 2016-02-07 09:28 L3974006"
"2016-02-06 13:00",-119.8337173,"Wally's Hot springs",TRUE,"Red-tailed Hawk",FALSE,"Buteo jamaicensis",TRUE,1,38.9774266,"L880090","Buteo jamaicensis 2016-02-06 13:00 L880090"
"2016-02-06 08:04",-119.82544,"US-NV-Reno-1356 Antelope Valley Rd",TRUE,"Red-tailed Hawk",FALSE,"Buteo jamaicensis",TRUE,1,39.752137,"L3754973","Buteo jamaicensis 2016-02-06 08:04 L3754973"
"2016-02-05 15:20",-119.7051001,"Carson River Park",TRUE,"Red-tailed Hawk",FALSE,"Buteo jamaicensis",FALSE,2,39.1414778,"L668818","Buteo jamaicensis 2016-02-05 15:20 L668818"
"2016-02-05 13:30",-115.35902,"corn creek field station",TRUE,"Red-tailed Hawk",FALSE,"Buteo jamaicensis",TRUE,1,36.438458,"L3917583","Buteo jamaicensis 2016-02-05 13:30 L3917583"
"2016-02-05 10:30",-114.4218698,"Overton WMA",TRUE,"Red-tailed Hawk",FALSE,"Buteo jamaicensis",FALSE,2,36.5134605,"L474583","Buteo jamaicensis 2016-02-05 10:30 L474583"
"2016-02-05 08:36",-119.8342645,"Davis Creek Regional Park",TRUE,"Red-tailed Hawk",FALSE,"Buteo jamaicensis",FALSE,1,39.3025076,"L476629","Buteo jamaicensis 2016-02-05 08:36 L476629"
"2016-02-04 14:15",-119.7391105,"Boynton Slough, Reno",TRUE,"Red-tailed Hawk",FALSE,"Buteo jamaicensis",TRUE,1,39.4921854,"L839996","Buteo jamaicensis 2016-02-04 14:15 L839996"
"2016-02-04 12:11",-119.7035031,"39.122x-119.704 - Feb 4, 2016 3:17 PM",TRUE,"Red-tailed Hawk",FALSE,"Buteo jamaicensis",TRUE,1,39.1224878,"L4217443","Buteo jamaicensis 2016-02-04 12:11 L4217443"
"2016-02-04",-115.5368185,"Spring Creek--Pleasant Valley",TRUE,"Red-tailed Hawk",FALSE,"Buteo jamaicensis",FALSE,1,40.7107354,"L269360","Buteo jamaicensis 2016-02-04 L269360"
"2016-02-04",-116.4771259,"Beowawe",TRUE,"Red-tailed Hawk",FALSE,"Buteo jamaicensis",TRUE,1,40.5948755,"L887023","Buteo jamaicensis 2016-02-04 L887023"
"2016-02-04",-115.4615879,"Lamoille - Agriculture Fields",TRUE,"Red-tailed Hawk",FALSE,"Buteo jamaicensis",TRUE,2,40.7371123,"L866253","Buteo jamaicensis 2016-02-04 L866253"
"2016-02-03 13:34",-119.7132706,"US-Nevada-Sparks-7655 Pyramid Way - 39.636x-119.713",TRUE,"Red-tailed Hawk",FALSE,"Buteo jamaicensis",TRUE,1,39.6364504,"L4215288","Buteo jamaicensis 2016-02-03 13:34 L4215288"
"2016-02-03 10:10",-118.8839149,"Fallon--Big Soda Lake",TRUE,"Red-tailed Hawk",FALSE,"Buteo jamaicensis",FALSE,2,39.5198005,"L385244","Buteo jamaicensis 2016-02-03 10:10 L385244"
"2016-02-03 09:04",-119.7346239,"1382 Hastings Lane - our house",TRUE,"Red-tailed Hawk",FALSE,"Buteo jamaicensis",TRUE,1,38.9438969,"L1782469","Buteo jamaicensis 2016-02-03 09:04 L1782469"
"2016-02-02 09:30",-116.0032616,"Discovery Park",TRUE,"Red-tailed Hawk",FALSE,"Buteo jamaicensis",TRUE,2,36.1975909,"L3222777","Buteo jamaicensis 2016-02-02 09:30 L3222777"
"2016-02-02 09:15",-115.9973645,"Pahrump--Willow Creek Golf Course (defunct)",TRUE,"Red-tailed Hawk",FALSE,"Buteo jamaicensis",FALSE,2,36.2020013,"L3176856","Buteo jamaicensis 2016-02-02 09:15 L3176856"
"2016-02-01 11:10",-119.8952419,"Mayberry Park",TRUE,"Red-tailed Hawk",FALSE,"Buteo jamaicensis",FALSE,2,39.5031218,"L3274706","Buteo jamaicensis 2016-02-01 11:10 L3274706"
"2016-02-01 07:45",-118.4759402,"Lovelock",TRUE,"Red-tailed Hawk",FALSE,"Buteo jamaicensis",TRUE,35,40.1806111,"L870948","Buteo jamaicensis 2016-02-01 07:45 L870948"
"2016-02-01",-118.3078194,"Rye Patch Dam",TRUE,"Red-tailed Hawk",FALSE,"Buteo jamaicensis",FALSE,1,40.469633,"L365709","Buteo jamaicensis 2016-02-01 L365709"
"2016-01-30 13:00",-114.8417187,"Lake Mead NRA--33 Hole Overlook",TRUE,"Red-tailed Hawk",FALSE,"Buteo jamaicensis",FALSE,1,36.11529,"L1853103","Buteo jamaicensis 2016-01-30 13:00 L1853103"
"2016-01-30 12:00",-119.6950783,"Pyramid Lake--Willows",TRUE,"Red-tailed Hawk",FALSE,"Buteo jamaicensis",FALSE,1,40.0742094,"L269368","Buteo jamaicensis 2016-01-30 12:00 L269368"
"2016-01-30 11:40",-114.5714164,"Laughlin, Riverwalk Trail",TRUE,"Red-tailed Hawk",FALSE,"Buteo jamaicensis",TRUE,1,35.1780703,"L4204672","Buteo jamaicensis 2016-01-30 11:40 L4204672"
"2016-01-30 09:30",-119.821615,"US-NV-Reno-Truckee River near the Hub coffee shop",TRUE,"Red-tailed Hawk",FALSE,"Buteo jamaicensis",TRUE,1,39.52184,"L4171209","Buteo jamaicensis 2016-01-30 09:30 L4171209"
"2016-01-30 08:50",-119.892939,"US-NV-Reno-7777 White Fir St - 39.5054x-119.8929",TRUE,"Red-tailed Hawk",FALSE,"Buteo jamaicensis",TRUE,2,39.505391,"L4203501","Buteo jamaicensis 2016-01-30 08:50 L4203501"
"2016-01-30 08:45",-119.4534767,"Popcorn Beach and mudflats",TRUE,"Red-tailed Hawk",FALSE,"Buteo jamaicensis",TRUE,2,39.847373,"L4204310","Buteo jamaicensis 2016-01-30 08:45 L4204310"
"2016-01-29 14:28",-119.7537661,"Bigelow Drive Pond",TRUE,"Red-tailed Hawk",FALSE,"Buteo jamaicensis",TRUE,2,39.1115332,"L3229138","Buteo jamaicensis 2016-01-29 14:28 L3229138"
"2016-01-29 14:00",-115.9228513,"Mountain Falls Golf Course Pahrump Nevada Nye County",TRUE,"Red-tailed Hawk",FALSE,"Buteo jamaicensis",TRUE,1,36.115944,"L4258733","Buteo jamaicensis 2016-01-29 14:00 L4258733"
"2016-01-29 10:15",-118.9970398,"Private Ranch-Carson River",TRUE,"Red-tailed Hawk",FALSE,"Buteo jamaicensis",TRUE,5,39.4764856,"L3338833","Buteo jamaicensis 2016-01-29 10:15 L3338833"
"2016-01-28 15:30",-119.7066605,"Carson River Park/Silver Saddle Ranch",TRUE,"Red-tailed Hawk",FALSE,"Buteo jamaicensis",TRUE,1,39.1359229,"L1790905","Buteo jamaicensis 2016-01-28 15:30 L1790905"
"2016-01-28 14:25",-118.5431671,"Stillwater road (Hwy. 116)",TRUE,"Red-tailed Hawk",FALSE,"Buteo jamaicensis",TRUE,1,39.5224489,"L864408","Buteo jamaicensis 2016-01-28 14:25 L864408"
"2016-01-28 08:45",-118.4736842,"Stillwater WMA",TRUE,"Red-tailed Hawk",FALSE,"Buteo jamaicensis",FALSE,2,39.6290027,"L277761","Buteo jamaicensis 2016-01-28 08:45 L277761"
"2016-01-28 08:00",-115.1205987,"Pahranagat NWR--Headquarters",TRUE,"Red-tailed Hawk",FALSE,"Buteo jamaicensis",FALSE,NA,37.2685716,"L517161","Buteo jamaicensis 2016-01-28 08:00 L517161"
"2016-01-27 15:55",-119.7496229,"Huffaker Hills Trailhead - lakeside trail",TRUE,"Red-tailed Hawk",FALSE,"Buteo jamaicensis",TRUE,1,39.4661801,"L1594900","Buteo jamaicensis 2016-01-27 15:55 L1594900"
"2016-01-27 15:33",-119.7468567,"Mira Loma Park",TRUE,"Red-tailed Hawk",FALSE,"Buteo jamaicensis",FALSE,2,39.490132,"L2504668","Buteo jamaicensis 2016-01-27 15:33 L2504668"
"2016-01-26 13:05",-119.869832,"US-NV-Reno-Mount Rose Ski Area - 39.3181x-119.8698",TRUE,"Red-tailed Hawk",FALSE,"Buteo jamaicensis",TRUE,1,39.31814,"L4193921","Buteo jamaicensis 2016-01-26 13:05 L4193921"
"2016-01-26 11:59",-119.14813,"US-NV-Yerington-Toiyabe National Forest - 38.4529x-119.1481",TRUE,"Red-tailed Hawk",FALSE,"Buteo jamaicensis",TRUE,1,38.45286,"L4199822","Buteo jamaicensis 2016-01-26 11:59 L4199822"
"2016-01-26 10:52",-119.7081208,"US-Nevada-Carson City-5000 Morgan Mill Rd - 39.182x-119.708",TRUE,"Red-tailed Hawk",FALSE,"Buteo jamaicensis",TRUE,1,39.1822202,"L4193660","Buteo jamaicensis 2016-01-26 10:52 L4193660"
"2016-01-25 13:24",-119.7913599,"Country Estates Cir",TRUE,"Red-tailed Hawk",FALSE,"Buteo jamaicensis",TRUE,1,39.4578123,"L3601283","Buteo jamaicensis 2016-01-25 13:24 L3601283"
"2016-01-25 12:20",-119.7709912,"Jake's Wetland",TRUE,"Red-tailed Hawk",FALSE,"Buteo jamaicensis",TRUE,3,38.9627791,"L4188477","Buteo jamaicensis 2016-01-25 12:20 L4188477"
"2016-01-25 12:05",-115.359224,"US-NV-Indian Springs-21801 Alamo Rd - 36.4389x-115.3592",TRUE,"Red-tailed Hawk",FALSE,"Buteo jamaicensis",TRUE,1,36.438928,"L4181184","Buteo jamaicensis 2016-01-25 12:05 L4181184"
"2016-01-24 14:00",-115.0187445,"Las Vegas Urban--Clark County Wetlands Park (Duck Creek)",TRUE,"Red-tailed Hawk",FALSE,"Buteo jamaicensis",FALSE,1,36.0951639,"L866201","Buteo jamaicensis 2016-01-24 14:00 L866201"
"2016-01-24 12:12",-119.6551895,"Pyramid Lake--Warrior Pt.",TRUE,"Red-tailed Hawk",FALSE,"Buteo jamaicensis",FALSE,1,40.0415464,"L478383","Buteo jamaicensis 2016-01-24 12:12 L478383"
"2016-01-24",-119.485413,"Pyramid Lake",TRUE,"Red-tailed Hawk",FALSE,"Buteo jamaicensis",FALSE,1,39.918681,"L320006","Buteo jamaicensis 2016-01-24 L320006"
"2016-01-24",-119.4568777,"Pyramid Lake--Popcorn Rock",TRUE,"Red-tailed Hawk",FALSE,"Buteo jamaicensis",FALSE,1,39.8490736,"L889607","Buteo jamaicensis 2016-01-24 L889607"
"2016-01-24",-119.5987344,"Pyramid Lake--Sutcliffe Marina",TRUE,"Red-tailed Hawk",FALSE,"Buteo jamaicensis",FALSE,1,39.9551322,"L869295","Buteo jamaicensis 2016-01-24 L869295"
"2016-01-24",-118.6377901,"Harmon Reservoir",TRUE,"Red-tailed Hawk",FALSE,"Buteo jamaicensis",FALSE,2,39.4732392,"L3556249","Buteo jamaicensis 2016-01-24 L3556249"
"2016-01-23 16:33",-119.7092789,"Empire Ranch Trail",TRUE,"Red-tailed Hawk",FALSE,"Buteo jamaicensis",TRUE,3,39.1798261,"L4091698","Buteo jamaicensis 2016-01-23 16:33 L4091698"
"2016-01-23 15:26",-114.6397591,"Big Bend of the Colorado SRA",TRUE,"Red-tailed Hawk",FALSE,"Buteo jamaicensis",FALSE,1,35.1147834,"L3497370","Buteo jamaicensis 2016-01-23 15:26 L3497370"
"2016-01-23 15:00",-119.832682,"Home",TRUE,"Red-tailed Hawk",FALSE,"Buteo jamaicensis",TRUE,1,39.6178363,"L2657870","Buteo jamaicensis 2016-01-23 15:00 L2657870"
"2016-01-23 10:25",-118.5577154,"Stillwater Road, Fallon",TRUE,"Red-tailed Hawk",FALSE,"Buteo jamaicensis",TRUE,2,39.5211095,"L2510865","Buteo jamaicensis 2016-01-23 10:25 L2510865"
"2016-01-23 09:28",-115.6538589,"Mountain Falls Front Pond Parkway in Nye County, Nevada",TRUE,"Red-tailed Hawk",FALSE,"Buteo jamaicensis",TRUE,2,36.1957981,"L2023005","Buteo jamaicensis 2016-01-23 09:28 L2023005"
"2016-01-22 13:45",-115.4273763,"Red Rock Canyon",TRUE,"Red-tailed Hawk",FALSE,"Buteo jamaicensis",FALSE,1,36.1353489,"L211850","Buteo jamaicensis 2016-01-22 13:45 L211850"
"2016-01-22 09:35",-118.5910606,"Stillwater Rd.",TRUE,"Red-tailed Hawk",FALSE,"Buteo jamaicensis",TRUE,9,39.4931789,"L2459076","Buteo jamaicensis 2016-01-22 09:35 L2459076"
"2016-01-22 08:30",-116.0184252,"Nevada Treasure Resort",TRUE,"Red-tailed Hawk",FALSE,"Buteo jamaicensis",TRUE,1,36.3119005,"L4182715","Buteo jamaicensis 2016-01-22 08:30 L4182715"
"2016-01-21 00:46",-114.8668188,"Lackawanna Springs",TRUE,"Red-tailed Hawk",FALSE,"Buteo jamaicensis",TRUE,1,39.283435,"L3011561","Buteo jamaicensis 2016-01-21 00:46 L3011561"
"2016-01-21",-119.7259784,"Reno -- Rosewood Lakes Firehouse Pond",TRUE,"Red-tailed Hawk",FALSE,"Buteo jamaicensis",TRUE,2,39.4937254,"L2253643","Buteo jamaicensis 2016-01-21 L2253643"
"2016-01-20 10:45",-119.443531,"Pyramid Lake Delta",TRUE,"Red-tailed Hawk",FALSE,"Buteo jamaicensis",FALSE,2,39.8547403,"L269367","Buteo jamaicensis 2016-01-20 10:45 L269367"
"2016-01-20 06:35",-115.080674,"Wildhorse Golf Course",TRUE,"Red-tailed Hawk",FALSE,"Buteo jamaicensis",TRUE,1,36.060942,"L3550231","Buteo jamaicensis 2016-01-20 06:35 L3550231"
"2016-01-19 08:15",-119.707793,"EMPIRE RANCH/CARSON RIVER TRAIL",TRUE,"Red-tailed Hawk",FALSE,"Buteo jamaicensis",TRUE,1,39.1817037,"L4175502","Buteo jamaicensis 2016-01-19 08:15 L4175502"
"2016-01-18 09:00",-119.8542309,"Reno - Crissie Caughlin Park",TRUE,"Red-tailed Hawk",FALSE,"Buteo jamaicensis",FALSE,1,39.5109278,"L3109793","Buteo jamaicensis 2016-01-18 09:00 L3109793"
"2016-01-18 08:18",-114.999782,"Henderson Bird Viewing Preserve",TRUE,"Red-tailed Hawk",FALSE,"Buteo jamaicensis",TRUE,1,36.0735851,"L1810850","Buteo jamaicensis 2016-01-18 08:18 L1810850"
"2016-02-16 12:20",-118.6883068,"S. Harmon Rd.",TRUE,"American Kestrel",FALSE,"Falco sparverius",TRUE,4,39.454354,"L2595620","Falco sparverius 2016-02-16 12:20 L2595620"
"2016-02-16 09:25",-118.6753464,"Indian Lakes",TRUE,"American Kestrel",FALSE,"Falco sparverius",TRUE,5,39.5878388,"L3113250","Falco sparverius 2016-02-16 09:25 L3113250"
"2016-02-15 10:00",-119.8448839,"Old NW Reno",TRUE,"American Kestrel",FALSE,"Falco sparverius",TRUE,1,39.5465127,"L3101332","Falco sparverius 2016-02-15 10:00 L3101332"
"2016-02-15 09:49",-119.7797728,"Carson Valley (Douglas Co.)",TRUE,"American Kestrel",FALSE,"Falco sparverius",FALSE,2,38.9861336,"L573446","Falco sparverius 2016-02-15 09:49 L573446"
"2016-02-15 09:35",-118.8137054,"Curry Rd. Residence",TRUE,"American Kestrel",FALSE,"Falco sparverius",TRUE,2,39.3743835,"L2118679","Falco sparverius 2016-02-15 09:35 L2118679"
"2016-02-15 09:25",-119.8327196,"Evans Creek Nature Trail",TRUE,"American Kestrel",FALSE,"Falco sparverius",TRUE,1,39.5527387,"L2748615","Falco sparverius 2016-02-15 09:25 L2748615"
"2016-02-14 16:04",-119.7332203,"Damonte Ranch Wetlands--Veterans Pkwy Lake and Wetlands",TRUE,"American Kestrel",FALSE,"Falco sparverius",FALSE,1,39.4202899,"L3192597","Falco sparverius 2016-02-14 16:04 L3192597"
"2016-02-14 14:00",-119.9055684,"Sierra Vista Park, Washoe County, NV",TRUE,"American Kestrel",FALSE,"Falco sparverius",TRUE,1,39.530598,"L3872925","Falco sparverius 2016-02-14 14:00 L3872925"
"2016-02-14 13:05",-119.8319149,"Genoa Lane and Foothill Drive fields",TRUE,"American Kestrel",FALSE,"Falco sparverius",TRUE,1,38.9955066,"L2035757","Falco sparverius 2016-02-14 13:05 L2035757"
"2016-02-14 12:05",-119.8447037,"Swan Lake Nature Study Area (IBA)",TRUE,"American Kestrel",FALSE,"Falco sparverius",FALSE,1,39.6573151,"L124349","Falco sparverius 2016-02-14 12:05 L124349"
"2016-02-14 12:00",-119.8256171,"Rancho San Rafael Park",TRUE,"American Kestrel",FALSE,"Falco sparverius",FALSE,1,39.5464016,"L130617","Falco sparverius 2016-02-14 12:00 L130617"
"2016-02-14 11:30",-118.578186,"Stillwater NWR",TRUE,"American Kestrel",FALSE,"Falco sparverius",FALSE,1,39.523111,"L598208","Falco sparverius 2016-02-14 11:30 L598208"
"2016-02-14 11:15",-119.8308849,"Swan Lake - east side",TRUE,"American Kestrel",FALSE,"Falco sparverius",TRUE,1,39.6636253,"L2951584","Falco sparverius 2016-02-14 11:15 L2951584"
"2016-02-14 10:30",-119.7054863,"Empire Ranch Trail",TRUE,"American Kestrel",FALSE,"Falco sparverius",TRUE,1,39.1729248,"L4263614","Falco sparverius 2016-02-14 10:30 L4263614"
"2016-02-14 07:41",-115.1834472,"36.181x-115.183 - Feb 14, 2016 7:41 AM",TRUE,"American Kestrel",FALSE,"Falco sparverius",TRUE,1,36.1813404,"L4260040","Falco sparverius 2016-02-14 07:41 L4260040"
"2016-02-13 16:00",-119.7185326,"Damonte Ranch Wetlands",TRUE,"American Kestrel",FALSE,"Falco sparverius",FALSE,4,39.4275085,"L506053","Falco sparverius 2016-02-13 16:00 L506053"
"2016-02-13 10:45",-119.7171593,"Rio Wrangler Pkwy - Drive",TRUE,"American Kestrel",FALSE,"Falco sparverius",TRUE,1,39.4361709,"L3732442","Falco sparverius 2016-02-13 10:45 L3732442"
"2016-02-13 10:30",-115.0124627,"West Sunset Road",TRUE,"American Kestrel",FALSE,"Falco sparverius",TRUE,1,36.0655959,"L4267480","Falco sparverius 2016-02-13 10:30 L4267480"
"2016-02-13 09:45",-114.8187697,"Bronco",TRUE,"American Kestrel",FALSE,"Falco sparverius",TRUE,1,35.9706997,"L4252508","Falco sparverius 2016-02-13 09:45 L4252508"
"2016-02-13 09:45",-119.7693604,"Washoe Lake SP",TRUE,"American Kestrel",FALSE,"Falco sparverius",FALSE,1,39.2380453,"L476632","Falco sparverius 2016-02-13 09:45 L476632"
"2016-02-13 09:00",-115.0021416,"Henderson Bird Viewing Preserve",TRUE,"American Kestrel",FALSE,"Falco sparverius",FALSE,1,36.0749791,"L209342","Falco sparverius 2016-02-13 09:00 L209342"
"2016-02-13 07:52",-115.266594,"Las Vegas Urban--Floyd Lamb Park at Tule Springs",TRUE,"American Kestrel",FALSE,"Falco sparverius",FALSE,1,36.3249025,"L139900","Falco sparverius 2016-02-13 07:52 L139900"
"2016-02-13",-118.77699,"Fallon",TRUE,"American Kestrel",FALSE,"Falco sparverius",TRUE,1,39.47352,"L192562","Falco sparverius 2016-02-13 L192562"
"2016-02-12 15:49",-119.8349894,"Lemmon Valley WWTP/Swan Lake",TRUE,"American Kestrel",FALSE,"Falco sparverius",TRUE,1,39.6529313,"L4257107","Falco sparverius 2016-02-12 15:49 L4257107"
"2016-02-12 14:15",-115.9647399,"Thousandaire Road off Homestead in Pahrump, Nevada",TRUE,"American Kestrel",FALSE,"Falco sparverius",TRUE,1,36.1318304,"L2627693","Falco sparverius 2016-02-12 14:15 L2627693"
"2016-02-12 10:00",-119.8213261,"Genoa",TRUE,"American Kestrel",FALSE,"Falco sparverius",TRUE,1,39.0023879,"L4251925","Falco sparverius 2016-02-12 10:00 L4251925"
"2016-02-12 09:00",-117.7394485,"Grass Valley Road",TRUE,"American Kestrel",FALSE,"Falco sparverius",TRUE,1,40.9510528,"L3375261","Falco sparverius 2016-02-12 09:00 L3375261"
"2016-02-12 08:00",-116.0032616,"Discovery Park",TRUE,"American Kestrel",FALSE,"Falco sparverius",TRUE,1,36.1975909,"L3222777","Falco sparverius 2016-02-12 08:00 L3222777"
"2016-02-12 07:45",-115.359628,"Corn Creek",TRUE,"American Kestrel",FALSE,"Falco sparverius",TRUE,NA,36.438152,"L3850727","Falco sparverius 2016-02-12 07:45 L3850727"
"2016-02-10 07:13",-115.1126862,"Las Vegas Urban--Sunset Park",TRUE,"American Kestrel",FALSE,"Falco sparverius",FALSE,1,36.0685619,"L456488","Falco sparverius 2016-02-10 07:13 L456488"
"2016-02-10 06:25",-115.080674,"Wildhorse Golf Course",TRUE,"American Kestrel",FALSE,"Falco sparverius",TRUE,1,36.060942,"L3550231","Falco sparverius 2016-02-10 06:25 L3550231"
"2016-02-09 13:05",-119.1228032,"Mason Valley WMA",TRUE,"American Kestrel",FALSE,"Falco sparverius",FALSE,1,39.0901674,"L969157","Falco sparverius 2016-02-09 13:05 L969157"
"2016-02-09 11:45",-114.9558842,"Las Vegas Urban--Clark County Wetlands Park (Wells Trailhead)",TRUE,"American Kestrel",FALSE,"Falco sparverius",TRUE,1,36.0933953,"L4225601","Falco sparverius 2016-02-09 11:45 L4225601"
"2016-02-09 10:30",-118.540445,"US-NV-Fallon-Tule Lake - 39.5998x-118.5404",TRUE,"American Kestrel",FALSE,"Falco sparverius",TRUE,5,39.599769,"L4236142","Falco sparverius 2016-02-09 10:30 L4236142"
"2016-02-07 11:00",-119.7295699,"Sparks Marina Park",TRUE,"American Kestrel",FALSE,"Falco sparverius",FALSE,1,39.5348915,"L269695","Falco sparverius 2016-02-07 11:00 L269695"
"2016-02-06 12:30",-119.8347473,"Lemmon Valley WTP",TRUE,"American Kestrel",FALSE,"Falco sparverius",FALSE,1,39.6503269,"L875241","Falco sparverius 2016-02-06 12:30 L875241"
"2016-02-06 07:25",-115.173099,"US-NV-Las Vegas-W Le Baron Ave - 36.0100x-115.1731",TRUE,"American Kestrel",FALSE,"Falco sparverius",TRUE,1,36.010047,"L4214554","Falco sparverius 2016-02-06 07:25 L4214554"
"2016-02-05 13:30",-115.35902,"corn creek field station",TRUE,"American Kestrel",FALSE,"Falco sparverius",TRUE,1,36.438458,"L3917583","Falco sparverius 2016-02-05 13:30 L3917583"
"2016-02-05 10:30",-114.4218698,"Overton WMA",TRUE,"American Kestrel",FALSE,"Falco sparverius",FALSE,2,36.5134605,"L474583","Falco sparverius 2016-02-05 10:30 L474583"
"2016-02-04",-115.5368185,"Spring Creek--Pleasant Valley",TRUE,"American Kestrel",FALSE,"Falco sparverius",FALSE,1,40.7107354,"L269360","Falco sparverius 2016-02-04 L269360"
"2016-02-03 13:34",-119.7132706,"US-Nevada-Sparks-7655 Pyramid Way - 39.636x-119.713",TRUE,"American Kestrel",FALSE,"Falco sparverius",TRUE,2,39.6364504,"L4215288","Falco sparverius 2016-02-03 13:34 L4215288"
"2016-02-03 10:10",-118.8839149,"Fallon--Big Soda Lake",TRUE,"American Kestrel",FALSE,"Falco sparverius",FALSE,3,39.5198005,"L385244","Falco sparverius 2016-02-03 10:10 L385244"
"2016-02-02 12:45",-115.9413385,"Malibou Ave.",TRUE,"American Kestrel",FALSE,"Falco sparverius",TRUE,1,36.1691997,"L4229124","Falco sparverius 2016-02-02 12:45 L4229124"
"2016-02-02 12:39",-115.9082336,"Homestead and Kellog",TRUE,"American Kestrel",FALSE,"Falco sparverius",TRUE,1,36.1032863,"L2769505","Falco sparverius 2016-02-02 12:39 L2769505"
"2016-02-02 11:16",-115.144427,"US-NV-Las Vegas-McCarran International Airport - 36.0852x-115.1444",TRUE,"American Kestrel",FALSE,"Falco sparverius",TRUE,1,36.085219,"L4212659","Falco sparverius 2016-02-02 11:16 L4212659"
"2016-02-02 11:00",-115.273726,"Las Vegas Urban--Pueblo Park",TRUE,"American Kestrel",FALSE,"Falco sparverius",FALSE,1,36.1950749,"L2816063","Falco sparverius 2016-02-02 11:00 L2816063"
"2016-01-31 08:05",-119.8387814,"home",TRUE,"American Kestrel",FALSE,"Falco sparverius",TRUE,1,39.5972894,"L814233","Falco sparverius 2016-01-31 08:05 L814233"
"2016-01-30 11:40",-114.5714164,"Laughlin, Riverwalk Trail",TRUE,"American Kestrel",FALSE,"Falco sparverius",TRUE,1,35.1780703,"L4204672","Falco sparverius 2016-01-30 11:40 L4204672"
"2016-01-29 12:23",-118.5844573,"US-Nevada-Fallon-10480 Stillwater Rd - 39.505x-118.584",TRUE,"American Kestrel",FALSE,"Falco sparverius",TRUE,2,39.5048331,"L4200977","Falco sparverius 2016-01-29 12:23 L4200977"
"2016-01-29 10:15",-118.9970398,"Private Ranch-Carson River",TRUE,"American Kestrel",FALSE,"Falco sparverius",TRUE,4,39.4764856,"L3338833","Falco sparverius 2016-01-29 10:15 L3338833"
"2016-01-28 14:00",-118.5431671,"Stillwater road (Hwy. 116)",TRUE,"American Kestrel",FALSE,"Falco sparverius",TRUE,6,39.5224489,"L864408","Falco sparverius 2016-01-28 14:00 L864408"
"2016-01-27 15:55",-119.7496229,"Huffaker Hills Trailhead - lakeside trail",TRUE,"American Kestrel",FALSE,"Falco sparverius",TRUE,1,39.4661801,"L1594900","Falco sparverius 2016-01-27 15:55 L1594900"
"2016-01-27 14:14",-119.7332954,"UNR Agriculture Fields",TRUE,"American Kestrel",FALSE,"Falco sparverius",FALSE,5,39.5078154,"L874810","Falco sparverius 2016-01-27 14:14 L874810"
"2016-01-27 12:54",-119.868684,"Reno - Caughlin Parkway Trail",TRUE,"American Kestrel",FALSE,"Falco sparverius",FALSE,1,39.494368,"L3245542","Falco sparverius 2016-01-27 12:54 L3245542"
"2016-01-24 08:00",-115.022462,"Las Vegas Urban--Clark County Wetlands Park",TRUE,"American Kestrel",FALSE,"Falco sparverius",FALSE,NA,36.1006947,"L160294","Falco sparverius 2016-01-24 08:00 L160294"
"2016-01-24 06:43",-115.04953,"Amargosa Trail, 1471 Paseo Verde Pkwy",TRUE,"American Kestrel",FALSE,"Falco sparverius",TRUE,1,36.02559,"L4187256","Falco sparverius 2016-01-24 06:43 L4187256"
"2016-01-24",-118.6377901,"Harmon Reservoir",TRUE,"American Kestrel",FALSE,"Falco sparverius",FALSE,2,39.4732392,"L3556249","Falco sparverius 2016-01-24 L3556249"
"2016-01-24",-119.5987344,"Pyramid Lake--Sutcliffe Marina",TRUE,"American Kestrel",FALSE,"Falco sparverius",FALSE,1,39.9551322,"L869295","Falco sparverius 2016-01-24 L869295"
"2016-01-23 10:25",-118.5577154,"Stillwater Road, Fallon",TRUE,"American Kestrel",FALSE,"Falco sparverius",TRUE,4,39.5211095,"L2510865","Falco sparverius 2016-01-23 10:25 L2510865"
"2016-01-22 09:35",-118.5910606,"Stillwater Rd.",TRUE,"American Kestrel",FALSE,"Falco sparverius",TRUE,7,39.4931789,"L2459076","Falco sparverius 2016-01-22 09:35 L2459076"
"2016-01-22 08:30",-116.0184252,"Nevada Treasure Resort",TRUE,"American Kestrel",FALSE,"Falco sparverius",TRUE,2,36.3119005,"L4182715","Falco sparverius 2016-01-22 08:30 L4182715"
"2016-01-21 08:16",-115.9438705,"Mountain Falls Back Pond & Agricultural Field",TRUE,"American Kestrel",FALSE,"Falco sparverius",TRUE,1,36.1456378,"L1943753","Falco sparverius 2016-01-21 08:16 L1943753"
"2016-01-20 15:38",-119.7066665,"Riverview Park and Empire Ranch Trail",TRUE,"American Kestrel",FALSE,"Falco sparverius",TRUE,1,39.164333,"L4090780","Falco sparverius 2016-01-20 15:38 L4090780"
"2016-01-20 14:40",-119.831905,"Idlewild Park",TRUE,"American Kestrel",FALSE,"Falco sparverius",FALSE,1,39.5208387,"L345149","Falco sparverius 2016-01-20 14:40 L345149"
"2016-01-20 14:21",-115.1900196,"Las Vegas Urban--Springs Preserve",TRUE,"American Kestrel",FALSE,"Falco sparverius",FALSE,1,36.1718465,"L3116444","Falco sparverius 2016-01-20 14:21 L3116444"
"2016-01-20 10:15",-119.485413,"Pyramid Lake",TRUE,"American Kestrel",FALSE,"Falco sparverius",FALSE,1,39.918681,"L320006","Falco sparverius 2016-01-20 10:15 L320006"
"2016-01-19 07:15",-115.6538589,"Mountain Falls Front Pond Parkway in Nye County, Nevada",TRUE,"American Kestrel",FALSE,"Falco sparverius",TRUE,1,36.1957981,"L2023005","Falco sparverius 2016-01-19 07:15 L2023005"
"2016-02-13 16:30",-119.7090912,"Riverview Park, Carson City",TRUE,"Barn Owl",FALSE,"Tyto alba",TRUE,1,39.1608136,"L4240276","Tyto alba 2016-02-13 16:30 L4240276"
"2016-02-12 14:00",-119.7633362,"Deadman's Canyon",TRUE,"Barn Owl",FALSE,"Tyto alba",TRUE,2,39.2394995,"L2873718","Tyto alba 2016-02-12 14:00 L2873718"
"2016-02-12 10:00",-119.8213261,"Genoa",TRUE,"Barn Owl",FALSE,"Tyto alba",TRUE,3,39.0023879,"L4251925","Tyto alba 2016-02-12 10:00 L4251925"
"2016-02-10 09:45",-118.578186,"Stillwater NWR",TRUE,"Barn Owl",FALSE,"Tyto alba",FALSE,2,39.523111,"L598208","Tyto alba 2016-02-10 09:45 L598208"
"2016-01-29 10:15",-118.9970398,"Private Ranch-Carson River",TRUE,"Barn Owl",FALSE,"Tyto alba",TRUE,1,39.4764856,"L3338833","Tyto alba 2016-01-29 10:15 L3338833"
"2016-01-23 20:02",-119.784605,"US-NV-Reno-7764 Pickering Cir - 39.4565x-119.7846",TRUE,"Barn Owl",FALSE,"Tyto alba",TRUE,1,39.456507,"L4129272","Tyto alba 2016-01-23 20:02 L4129272"
"2016-01-23",-116.0084435,"Carlin Tunnels",TRUE,"Barn Owl",FALSE,"Tyto alba",TRUE,1,40.7187549,"L4233259","Tyto alba 2016-01-23 L4233259"
"2016-01-22 09:35",-118.5910606,"Stillwater Rd.",TRUE,"Barn Owl",FALSE,"Tyto alba",TRUE,1,39.4931789,"L2459076","Tyto alba 2016-01-22 09:35 L2459076"
"2016-01-21 17:45",-119.7332954,"UNR Agriculture Fields",TRUE,"Barn Owl",FALSE,"Tyto alba",FALSE,1,39.5078154,"L874810","Tyto alba 2016-01-21 17:45 L874810"
"2016-02-14 08:30",-116.0568666,"Pahrump",TRUE,"Burrowing Owl",FALSE,"Athene cunicularia",TRUE,2,36.2872169,"L3388397","Athene cunicularia 2016-02-14 08:30 L3388397"
"2016-02-13 16:45",-116.3142073,"Ash Meadows Wildlife Refuge Headquarters",TRUE,"Burrowing Owl",FALSE,"Athene cunicularia",TRUE,5,36.4205115,"L3220615","Athene cunicularia 2016-02-13 16:45 L3220615"
"2016-02-12 15:25",-115.2447635,"Whispering Sands and Balsam",TRUE,"Burrowing Owl",FALSE,"Athene cunicularia",TRUE,5,36.3012055,"L2709879","Athene cunicularia 2016-02-12 15:25 L2709879"
"2016-02-12 12:03",-115.9438705,"Mountain Falls Back Pond & Agricultural Field",TRUE,"Burrowing Owl",FALSE,"Athene cunicularia",TRUE,1,36.1456378,"L1943753","Athene cunicularia 2016-02-12 12:03 L1943753"
"2016-02-12 10:50",-115.9562302,"Lakeside Casino and Campground",TRUE,"Burrowing Owl",FALSE,"Athene cunicularia",TRUE,2,36.1403701,"L1943831","Athene cunicularia 2016-02-12 10:50 L1943831"
"2016-02-04 07:05",-119.2059946,"Yerington Mine Site",TRUE,"Burrowing Owl",FALSE,"Athene cunicularia",TRUE,1,38.9986931,"L3335554","Athene cunicularia 2016-02-04 07:05 L3335554"
"2016-02-03",-114.4889545,"Oasis",TRUE,"Burrowing Owl",TRUE,"Athene cunicularia",TRUE,1,41.0300319,"L2170977","Athene cunicularia 2016-02-03 L2170977"
"2016-02-02 08:18",-115.995841,"Agricultural Fields",TRUE,"Burrowing Owl",FALSE,"Athene cunicularia",TRUE,2,36.158667,"L4213874","Athene cunicularia 2016-02-02 08:18 L4213874"
"2016-01-29 07:02",-115.266594,"Las Vegas Urban--Floyd Lamb Park at Tule Springs",TRUE,"Burrowing Owl",FALSE,"Athene cunicularia",FALSE,1,36.3249025,"L139900","Athene cunicularia 2016-01-29 07:02 L139900"
"2016-02-16 07:30",-115.1126862,"Las Vegas Urban--Sunset Park",TRUE,"Cooper's Hawk",FALSE,"Accipiter cooperii",FALSE,NA,36.0685619,"L456488","Accipiter cooperii 2016-02-16 07:30 L456488"
"2016-02-15 10:00",-119.8256171,"Rancho San Rafael Park",TRUE,"Cooper's Hawk",FALSE,"Accipiter cooperii",FALSE,1,39.5464016,"L130617","Accipiter cooperii 2016-02-15 10:00 L130617"
"2016-02-15 09:49",-119.7797728,"Carson Valley (Douglas Co.)",TRUE,"Cooper's Hawk",FALSE,"Accipiter cooperii",FALSE,1,38.9861336,"L573446","Accipiter cooperii 2016-02-15 09:49 L573446"
"2016-02-15 07:36",-119.9939418,"Verdi",TRUE,"Cooper's Hawk",FALSE,"Accipiter cooperii",TRUE,1,39.5243027,"L2193882","Accipiter cooperii 2016-02-15 07:36 L2193882"
"2016-02-15 07:15",-119.8382228,"back yard",TRUE,"Cooper's Hawk",FALSE,"Accipiter cooperii",TRUE,1,39.5461578,"L2630184","Accipiter cooperii 2016-02-15 07:15 L2630184"
"2016-02-15 07:00",-114.8467398,"Duck Pond",TRUE,"Cooper's Hawk",FALSE,"Accipiter cooperii",TRUE,1,35.9550123,"L4273199","Accipiter cooperii 2016-02-15 07:00 L4273199"
"2016-02-15 06:49",-116.3122084,"Ash Meadows National Wildlife Refuge, Amargosa Valley,",TRUE,"Cooper's Hawk",FALSE,"Accipiter cooperii",TRUE,1,36.4181034,"L2470979","Accipiter cooperii 2016-02-15 06:49 L2470979"
"2016-02-14 15:37",-119.7066665,"Riverview Park and Empire Ranch Trail",TRUE,"Cooper's Hawk",FALSE,"Accipiter cooperii",TRUE,1,39.164333,"L4090780","Accipiter cooperii 2016-02-14 15:37 L4090780"
"2016-02-14 15:30",-119.824966,"2692 Alpine Creek Road",TRUE,"Cooper's Hawk",FALSE,"Accipiter cooperii",TRUE,1,39.4658115,"L4270429","Accipiter cooperii 2016-02-14 15:30 L4270429"
"2016-02-14 12:22",-119.7647148,"Washoe Lake SP--Deadman's Creek",TRUE,"Cooper's Hawk",FALSE,"Accipiter cooperii",FALSE,1,39.2380141,"L1192444","Accipiter cooperii 2016-02-14 12:22 L1192444"
"2016-02-14 09:20",-119.7116125,"Pah Rah Green Belt",TRUE,"Cooper's Hawk",FALSE,"Accipiter cooperii",TRUE,1,39.5613515,"L2352563","Accipiter cooperii 2016-02-14 09:20 L2352563"
"2016-02-14 08:00",-119.8230743,"Home",TRUE,"Cooper's Hawk",FALSE,"Accipiter cooperii",TRUE,1,39.2400313,"L4223297","Accipiter cooperii 2016-02-14 08:00 L4223297"
"2016-02-14 08:00",-115.02074,"clark county wetlands park",TRUE,"Cooper's Hawk",FALSE,"Accipiter cooperii",TRUE,1,36.0964873,"L4264018","Accipiter cooperii 2016-02-14 08:00 L4264018"
"2016-02-14 07:30",-119.8673165,"Backyard",TRUE,"Cooper's Hawk",FALSE,"Accipiter cooperii",TRUE,2,39.4871523,"L4265417","Accipiter cooperii 2016-02-14 07:30 L4265417"
"2016-02-14 07:05",-119.7404516,"1340 Muir Drive",TRUE,"Cooper's Hawk",FALSE,"Accipiter cooperii",TRUE,1,38.899216,"L3932556","Accipiter cooperii 2016-02-14 07:05 L3932556"
"2016-02-14 06:45",-114.843843,"Quail Ridge",TRUE,"Cooper's Hawk",FALSE,"Accipiter cooperii",TRUE,2,35.965468,"L4273598","Accipiter cooperii 2016-02-14 06:45 L4273598"
"2016-02-14 06:20",-115.359566,"Desert NWR--Corn Creek (Field Station)",TRUE,"Cooper's Hawk",FALSE,"Accipiter cooperii",FALSE,2,36.438797,"L168656","Accipiter cooperii 2016-02-14 06:20 L168656"
"2016-02-13 12:01",-119.856496,"Swan Lake Nature Study Area (IBA)--Boardwalk",TRUE,"Cooper's Hawk",FALSE,"Accipiter cooperii",FALSE,1,39.6531916,"L3572935","Accipiter cooperii 2016-02-13 12:01 L3572935"
"2016-02-13 07:52",-115.266594,"Las Vegas Urban--Floyd Lamb Park at Tule Springs",TRUE,"Cooper's Hawk",FALSE,"Accipiter cooperii",FALSE,1,36.3249025,"L139900","Accipiter cooperii 2016-02-13 07:52 L139900"
"2016-02-13 07:30",-115.022462,"Las Vegas Urban--Clark County Wetlands Park",TRUE,"Cooper's Hawk",FALSE,"Accipiter cooperii",FALSE,NA,36.1006947,"L160294","Accipiter cooperii 2016-02-13 07:30 L160294"
"2016-02-13 07:30",-115.7764894,"Ports Backyard",TRUE,"Cooper's Hawk",FALSE,"Accipiter cooperii",TRUE,1,40.8310012,"L1812349","Accipiter cooperii 2016-02-13 07:30 L1812349"
"2016-02-13 06:00",-115.2773041,"Ritter Residence",TRUE,"Cooper's Hawk",FALSE,"Accipiter cooperii",TRUE,1,36.2430488,"L1982882","Accipiter cooperii 2016-02-13 06:00 L1982882"
"2016-02-12 17:30",-119.763712,"Sparks - Rock Park",TRUE,"Cooper's Hawk",FALSE,"Accipiter cooperii",FALSE,1,39.5200308,"L345154","Accipiter cooperii 2016-02-12 17:30 L345154"
"2016-02-12 15:30",-119.7075462,"Empire Ranch Trail",TRUE,"Cooper's Hawk",FALSE,"Accipiter cooperii",TRUE,1,39.1777488,"L4247984","Accipiter cooperii 2016-02-12 15:30 L4247984"
"2016-02-12 12:03",-115.9438705,"Mountain Falls Back Pond & Agricultural Field",TRUE,"Cooper's Hawk",FALSE,"Accipiter cooperii",TRUE,1,36.1456378,"L1943753","Accipiter cooperii 2016-02-12 12:03 L1943753"
"2016-02-12 11:00",-119.5701141,"MyRanch",TRUE,"Cooper's Hawk",FALSE,"Accipiter cooperii",TRUE,1,39.7516245,"L1960154","Accipiter cooperii 2016-02-12 11:00 L1960154"
"2016-02-12 08:00",-116.0032616,"Discovery Park",TRUE,"Cooper's Hawk",FALSE,"Accipiter cooperii",TRUE,1,36.1975909,"L3222777","Accipiter cooperii 2016-02-12 08:00 L3222777"
"2016-02-12 07:00",-119.6842994,"Kiley Ranch Preserve",TRUE,"Cooper's Hawk",FALSE,"Accipiter cooperii",FALSE,1,39.6172156,"L312482","Accipiter cooperii 2016-02-12 07:00 L312482"
"2016-02-11 13:51",-119.1228032,"Mason Valley WMA",TRUE,"Cooper's Hawk",FALSE,"Accipiter cooperii",FALSE,1,39.0901674,"L969157","Accipiter cooperii 2016-02-11 13:51 L969157"
"2016-02-10 09:45",-118.578186,"Stillwater NWR",TRUE,"Cooper's Hawk",FALSE,"Accipiter cooperii",FALSE,2,39.523111,"L598208","Accipiter cooperii 2016-02-10 09:45 L598208"
"2016-02-10 07:59",-115.190249,"US-NV-Las Vegas-299-333 S Valley View Blvd - 36.1711x-115.1902",TRUE,"Cooper's Hawk",FALSE,"Accipiter cooperii",TRUE,1,36.171091,"L4236830","Accipiter cooperii 2016-02-10 07:59 L4236830"
"2016-02-10 07:30",-115.0021416,"Henderson Bird Viewing Preserve",TRUE,"Cooper's Hawk",FALSE,"Accipiter cooperii",FALSE,NA,36.0749791,"L209342","Accipiter cooperii 2016-02-10 07:30 L209342"
"2016-02-10 06:25",-115.080674,"Wildhorse Golf Course",TRUE,"Cooper's Hawk",FALSE,"Accipiter cooperii",TRUE,1,36.060942,"L3550231","Accipiter cooperii 2016-02-10 06:25 L3550231"
"2016-02-09 14:00",-115.0187445,"Las Vegas Urban--Clark County Wetlands Park (Duck Creek)",TRUE,"Cooper's Hawk",FALSE,"Accipiter cooperii",FALSE,1,36.0951639,"L866201","Accipiter cooperii 2016-02-09 14:00 L866201"
"2016-02-08 13:45",-119.846535,"Oxbow Park",TRUE,"Cooper's Hawk",FALSE,"Accipiter cooperii",FALSE,1,39.518784,"L157052","Accipiter cooperii 2016-02-08 13:45 L157052"
"2016-02-08 10:28",-115.4588759,"Spring Mountain Ranch SP",TRUE,"Cooper's Hawk",FALSE,"Accipiter cooperii",FALSE,1,36.0690146,"L337028","Accipiter cooperii 2016-02-08 10:28 L337028"
"2016-02-07 10:10",-115.1900196,"Las Vegas Urban--Springs Preserve",TRUE,"Cooper's Hawk",FALSE,"Accipiter cooperii",FALSE,1,36.1718465,"L3116444","Accipiter cooperii 2016-02-07 10:10 L3116444"
"2016-02-06",-119.8447037,"Swan Lake Nature Study Area (IBA)",TRUE,"Cooper's Hawk",FALSE,"Accipiter cooperii",FALSE,1,39.6573151,"L124349","Accipiter cooperii 2016-02-06 L124349"
"2016-02-05 13:30",-115.35902,"corn creek field station",TRUE,"Cooper's Hawk",FALSE,"Accipiter cooperii",TRUE,1,36.438458,"L3917583","Accipiter cooperii 2016-02-05 13:30 L3917583"
"2016-02-05 10:30",-114.4218698,"Overton WMA",TRUE,"Cooper's Hawk",FALSE,"Accipiter cooperii",FALSE,1,36.5134605,"L474583","Accipiter cooperii 2016-02-05 10:30 L474583"
"2016-02-04 15:20",-119.7187042,"Hidden Valley, Reno",TRUE,"Cooper's Hawk",FALSE,"Accipiter cooperii",TRUE,2,39.4905474,"L1861400","Accipiter cooperii 2016-02-04 15:20 L1861400"
"2016-02-03 10:10",-118.8839149,"Fallon--Big Soda Lake",TRUE,"Cooper's Hawk",FALSE,"Accipiter cooperii",FALSE,1,39.5198005,"L385244","Accipiter cooperii 2016-02-03 10:10 L385244"
"2016-02-03 09:04",-119.7346239,"1382 Hastings Lane - our house",TRUE,"Cooper's Hawk",FALSE,"Accipiter cooperii",TRUE,1,38.9438969,"L1782469","Accipiter cooperii 2016-02-03 09:04 L1782469"
"2016-02-02 09:15",-115.9973645,"Pahrump--Willow Creek Golf Course (defunct)",TRUE,"Cooper's Hawk",FALSE,"Accipiter cooperii",FALSE,1,36.2020013,"L3176856","Accipiter cooperii 2016-02-02 09:15 L3176856"
"2016-02-01 14:10",-115.9562302,"Lakeside Casino and Campground",TRUE,"Cooper's Hawk",FALSE,"Accipiter cooperii",TRUE,1,36.1403701,"L1943831","Accipiter cooperii 2016-02-01 14:10 L1943831"
"2016-02-01 08:15",-115.2802867,"Las Vegas Urban--My Yard",TRUE,"Cooper's Hawk",FALSE,"Accipiter cooperii",TRUE,1,36.1345409,"L792922","Accipiter cooperii 2016-02-01 08:15 L792922"
"2016-01-31 15:00",-119.831905,"Idlewild Park",TRUE,"Cooper's Hawk",FALSE,"Accipiter cooperii",FALSE,1,39.5208387,"L345149","Accipiter cooperii 2016-01-31 15:00 L345149"
"2016-01-31 10:15",-115.025401,"US-NV-Las Vegas-Desert Wetlands Park - 36.1030x-115.0254",TRUE,"Cooper's Hawk",FALSE,"Accipiter cooperii",TRUE,1,36.10295,"L4207094","Accipiter cooperii 2016-01-31 10:15 L4207094"
"2016-01-30 16:33",-119.868684,"Reno - Caughlin Parkway Trail",TRUE,"Cooper's Hawk",FALSE,"Accipiter cooperii",FALSE,1,39.494368,"L3245542","Accipiter cooperii 2016-01-30 16:33 L3245542"
"2016-01-30 07:08",-119.7917542,"SC Complex",TRUE,"Cooper's Hawk",FALSE,"Accipiter cooperii",TRUE,1,39.5023933,"L4128933","Accipiter cooperii 2016-01-30 07:08 L4128933"
"2016-01-25 13:24",-119.7913599,"Country Estates Cir",TRUE,"Cooper's Hawk",FALSE,"Accipiter cooperii",TRUE,1,39.4578123,"L3601283","Accipiter cooperii 2016-01-25 13:24 L3601283"
"2016-01-24 10:05",-118.8137054,"Curry Rd. Residence",TRUE,"Cooper's Hawk",FALSE,"Accipiter cooperii",TRUE,1,39.3743835,"L2118679","Accipiter cooperii 2016-01-24 10:05 L2118679"
"2016-01-23 16:33",-119.7092789,"Empire Ranch Trail",TRUE,"Cooper's Hawk",FALSE,"Accipiter cooperii",TRUE,1,39.1798261,"L4091698","Accipiter cooperii 2016-01-23 16:33 L4091698"
"2016-01-23 15:26",-114.6397591,"Big Bend of the Colorado SRA",TRUE,"Cooper's Hawk",FALSE,"Accipiter cooperii",FALSE,1,35.1147834,"L3497370","Accipiter cooperii 2016-01-23 15:26 L3497370"
"2016-01-22 09:35",-118.5910606,"Stillwater Rd.",TRUE,"Cooper's Hawk",FALSE,"Accipiter cooperii",TRUE,1,39.4931789,"L2459076","Accipiter cooperii 2016-01-22 09:35 L2459076"
"2016-01-22 08:30",-116.0184252,"Nevada Treasure Resort",TRUE,"Cooper's Hawk",FALSE,"Accipiter cooperii",TRUE,1,36.3119005,"L4182715","Accipiter cooperii 2016-01-22 08:30 L4182715"
"2016-01-21",-119.826392,"Reno -- Rancho San Rafael Park south of McCarran",TRUE,"Cooper's Hawk",FALSE,"Accipiter cooperii",TRUE,1,39.5489773,"L1833562","Accipiter cooperii 2016-01-21 L1833562"
"2016-01-20 09:10",-119.6950783,"Pyramid Lake--Willows",TRUE,"Cooper's Hawk",FALSE,"Accipiter cooperii",FALSE,1,40.0742094,"L269368","Accipiter cooperii 2016-01-20 09:10 L269368"
"2016-01-19 07:15",-115.6538589,"Mountain Falls Front Pond Parkway in Nye County, Nevada",TRUE,"Cooper's Hawk",FALSE,"Accipiter cooperii",TRUE,1,36.1957981,"L2023005","Accipiter cooperii 2016-01-19 07:15 L2023005"
"2016-01-18 09:00",-119.8542309,"Reno - Crissie Caughlin Park",TRUE,"Cooper's Hawk",FALSE,"Accipiter cooperii",FALSE,1,39.5109278,"L3109793","Accipiter cooperii 2016-01-18 09:00 L3109793"
"2016-02-16 09:04",-119.1228032,"Mason Valley WMA",TRUE,"Ferruginous Hawk",FALSE,"Buteo regalis",FALSE,2,39.0901674,"L969157","Buteo regalis 2016-02-16 09:04 L969157"
"2016-02-15 09:30",-116.0150242,"Blagg Road and W. Basin Road",TRUE,"Ferruginous Hawk",FALSE,"Buteo regalis",TRUE,1,36.2204569,"L3395348","Buteo regalis 2016-02-15 09:30 L3395348"
"2016-02-15 06:49",-116.3122084,"Ash Meadows National Wildlife Refuge, Amargosa Valley,",TRUE,"Ferruginous Hawk",FALSE,"Buteo regalis",TRUE,1,36.4181034,"L2470979","Buteo regalis 2016-02-15 06:49 L2470979"
"2016-02-13 11:05",-119.7797728,"Carson Valley (Douglas Co.)",TRUE,"Ferruginous Hawk",FALSE,"Buteo regalis",FALSE,1,38.9861336,"L573446","Buteo regalis 2016-02-13 11:05 L573446"
"2016-02-13 10:20",-114.8815441,"Highway 93, just N of Wells",TRUE,"Ferruginous Hawk",FALSE,"Buteo regalis",TRUE,1,41.1717413,"L4252407","Buteo regalis 2016-02-13 10:20 L4252407"
"2016-02-13 08:40",-115.9438705,"Mountain Falls Back Pond & Agricultural Field",TRUE,"Ferruginous Hawk",FALSE,"Buteo regalis",TRUE,1,36.1456378,"L1943753","Buteo regalis 2016-02-13 08:40 L1943753"
"2016-02-13",-118.77699,"Fallon",TRUE,"Ferruginous Hawk",FALSE,"Buteo regalis",TRUE,1,39.47352,"L192562","Buteo regalis 2016-02-13 L192562"
"2016-02-09 17:09",-118.4759926,"Lovelock, South Meridian Road",TRUE,"Ferruginous Hawk",FALSE,"Buteo regalis",TRUE,1,40.1321739,"L3157843","Buteo regalis 2016-02-09 17:09 L3157843"
"2016-02-09 10:30",-118.540445,"US-NV-Fallon-Tule Lake - 39.5998x-118.5404",TRUE,"Ferruginous Hawk",FALSE,"Buteo regalis",TRUE,2,39.599769,"L4236142","Buteo regalis 2016-02-09 10:30 L4236142"
"2016-02-02 09:30",-116.0032616,"Discovery Park",TRUE,"Ferruginous Hawk",FALSE,"Buteo regalis",TRUE,1,36.1975909,"L3222777","Buteo regalis 2016-02-02 09:30 L3222777"
"2016-02-02 09:15",-115.9973645,"Pahrump--Willow Creek Golf Course (defunct)",TRUE,"Ferruginous Hawk",FALSE,"Buteo regalis",FALSE,1,36.2020013,"L3176856","Buteo regalis 2016-02-02 09:15 L3176856"
"2016-02-01 07:45",-118.4759402,"Lovelock",TRUE,"Ferruginous Hawk",FALSE,"Buteo regalis",TRUE,3,40.1806111,"L870948","Buteo regalis 2016-02-01 07:45 L870948"
"2016-01-29 10:15",-118.9970398,"Private Ranch-Carson River",TRUE,"Ferruginous Hawk",FALSE,"Buteo regalis",TRUE,2,39.4764856,"L3338833","Buteo regalis 2016-01-29 10:15 L3338833"
"2016-01-19 07:15",-115.6538589,"Mountain Falls Front Pond Parkway in Nye County, Nevada",TRUE,"Ferruginous Hawk",FALSE,"Buteo regalis",TRUE,1,36.1957981,"L2023005","Buteo regalis 2016-01-19 07:15 L2023005"
"2016-02-15 15:45",-119.868684,"Reno - Caughlin Parkway Trail",TRUE,"Great Horned Owl",FALSE,"Bubo virginianus",FALSE,1,39.494368,"L3245542","Bubo virginianus 2016-02-15 15:45 L3245542"
"2016-02-15 13:49",-119.8256171,"Rancho San Rafael Park",TRUE,"Great Horned Owl",FALSE,"Bubo virginianus",FALSE,2,39.5464016,"L130617","Bubo virginianus 2016-02-15 13:49 L130617"
"2016-02-15 13:21",-114.1242385,"Baker Ranch",TRUE,"Great Horned Owl",FALSE,"Bubo virginianus",TRUE,1,39.0250517,"L3392877","Bubo virginianus 2016-02-15 13:21 L3392877"
"2016-02-15 11:30",-119.7684833,"14235 ghost rider drive",TRUE,"Great Horned Owl",FALSE,"Bubo virginianus",TRUE,1,39.3972078,"L4280182","Bubo virginianus 2016-02-15 11:30 L4280182"
"2016-02-15 09:35",-118.8137054,"Curry Rd. Residence",TRUE,"Great Horned Owl",FALSE,"Bubo virginianus",TRUE,2,39.3743835,"L2118679","Bubo virginianus 2016-02-15 09:35 L2118679"
"2016-02-15 08:00",-114.2032242,"Sage Way",TRUE,"Great Horned Owl",FALSE,"Bubo virginianus",TRUE,2,39.0117146,"L1944694","Bubo virginianus 2016-02-15 08:00 L1944694"
"2016-02-14 19:03",-119.7069132,"Carson River Park/Silver Saddle Ranch",TRUE,"Great Horned Owl",FALSE,"Bubo virginianus",TRUE,1,39.1363102,"L891127","Bubo virginianus 2016-02-14 19:03 L891127"
"2016-02-14 19:00",-115.7811356,"Dotta Drive",TRUE,"Great Horned Owl",FALSE,"Bubo virginianus",TRUE,2,40.8344481,"L4031392","Bubo virginianus 2016-02-14 19:00 L4031392"
"2016-02-14 15:37",-119.7066665,"Riverview Park and Empire Ranch Trail",TRUE,"Great Horned Owl",FALSE,"Bubo virginianus",TRUE,1,39.164333,"L4090780","Bubo virginianus 2016-02-14 15:37 L4090780"
"2016-02-14 14:20",-119.779634,"Rte. 395, Carson Valley",TRUE,"Great Horned Owl",FALSE,"Bubo virginianus",TRUE,1,39.0652942,"L4277014","Bubo virginianus 2016-02-14 14:20 L4277014"
"2016-02-14 09:25",-119.779535,"US-NV-Minden-2985-3019 US Highway 395 N - 39.0565x-119.7795",TRUE,"Great Horned Owl",FALSE,"Bubo virginianus",TRUE,1,39.056545,"L4260878","Bubo virginianus 2016-02-14 09:25 L4260878"
"2016-02-13",-118.77699,"Fallon",TRUE,"Great Horned Owl",FALSE,"Bubo virginianus",TRUE,1,39.47352,"L192562","Bubo virginianus 2016-02-13 L192562"
"2016-02-12 12:43",-119.7657922,"Deadman's Creek Trail",TRUE,"Great Horned Owl",FALSE,"Bubo virginianus",TRUE,1,39.2379204,"L1806343","Bubo virginianus 2016-02-12 12:43 L1806343"
"2016-02-12 11:00",-119.5701141,"MyRanch",TRUE,"Great Horned Owl",FALSE,"Bubo virginianus",TRUE,1,39.7516245,"L1960154","Bubo virginianus 2016-02-12 11:00 L1960154"
"2016-02-12 10:00",-119.8213261,"Genoa",TRUE,"Great Horned Owl",FALSE,"Bubo virginianus",TRUE,2,39.0023879,"L4251925","Bubo virginianus 2016-02-12 10:00 L4251925"
"2016-02-12 06:03",-119.7404516,"1340 Muir Drive",TRUE,"Great Horned Owl",FALSE,"Bubo virginianus",TRUE,1,38.899216,"L3932556","Bubo virginianus 2016-02-12 06:03 L3932556"
"2016-02-10 09:45",-118.578186,"Stillwater NWR",TRUE,"Great Horned Owl",FALSE,"Bubo virginianus",FALSE,7,39.523111,"L598208","Bubo virginianus 2016-02-10 09:45 L598208"
"2016-02-09 17:09",-118.4759926,"Lovelock, South Meridian Road",TRUE,"Great Horned Owl",FALSE,"Bubo virginianus",TRUE,4,40.1321739,"L3157843","Bubo virginianus 2016-02-09 17:09 L3157843"
"2016-02-08 17:40",-119.8141958,"NV: Reno: University of Nevada Campus",TRUE,"Great Horned Owl",FALSE,"Bubo virginianus",TRUE,2,39.5387732,"L319479","Bubo virginianus 2016-02-08 17:40 L319479"
"2016-02-07 05:15",-119.7332954,"UNR Agriculture Fields",TRUE,"Great Horned Owl",FALSE,"Bubo virginianus",FALSE,1,39.5078154,"L874810","Bubo virginianus 2016-02-07 05:15 L874810"
"2016-02-04 09:00",-115.022462,"Las Vegas Urban--Clark County Wetlands Park",TRUE,"Great Horned Owl",FALSE,"Bubo virginianus",FALSE,2,36.1006947,"L160294","Bubo virginianus 2016-02-04 09:00 L160294"
"2016-01-29 10:15",-118.9970398,"Private Ranch-Carson River",TRUE,"Great Horned Owl",FALSE,"Bubo virginianus",TRUE,2,39.4764856,"L3338833","Bubo virginianus 2016-01-29 10:15 L3338833"
"2016-01-28 15:30",-119.7066605,"Carson River Park/Silver Saddle Ranch",TRUE,"Great Horned Owl",FALSE,"Bubo virginianus",TRUE,7,39.1359229,"L1790905","Bubo virginianus 2016-01-28 15:30 L1790905"
"2016-01-28 08:45",-118.4736842,"Stillwater WMA",TRUE,"Great Horned Owl",FALSE,"Bubo virginianus",FALSE,NA,39.6290027,"L277761","Bubo virginianus 2016-01-28 08:45 L277761"
"2016-01-26 06:45",-119.8958775,"Chesterfield Lane",TRUE,"Great Horned Owl",FALSE,"Bubo virginianus",TRUE,1,39.52167,"L2786815","Bubo virginianus 2016-01-26 06:45 L2786815"
"2016-01-24 17:00",-114.4566607,"Overton/Logandale",TRUE,"Great Horned Owl",FALSE,"Bubo virginianus",TRUE,1,36.5639788,"L4191368","Bubo virginianus 2016-01-24 17:00 L4191368"
"2016-01-24 09:15",-118.7955093,"Allen Rd.",TRUE,"Great Horned Owl",FALSE,"Bubo virginianus",TRUE,1,39.3818141,"L2827743","Bubo virginianus 2016-01-24 09:15 L2827743"
"2016-01-24",-119.5987344,"Pyramid Lake--Sutcliffe Marina",TRUE,"Great Horned Owl",FALSE,"Bubo virginianus",FALSE,1,39.9551322,"L869295","Bubo virginianus 2016-01-24 L869295"
"2016-01-22 09:35",-118.5910606,"Stillwater Rd.",TRUE,"Great Horned Owl",FALSE,"Bubo virginianus",TRUE,1,39.4931789,"L2459076","Bubo virginianus 2016-01-22 09:35 L2459076"
"2016-01-20 17:35",-119.2580104,"Fernley yard",TRUE,"Great Horned Owl",FALSE,"Bubo virginianus",TRUE,1,39.5973029,"L1419982","Bubo virginianus 2016-01-20 17:35 L1419982"
"2016-01-19 05:20",-119.829754,"39.518938, -119.829754",TRUE,"Great Horned Owl",FALSE,"Bubo virginianus",TRUE,2,39.518938,"L3867728","Bubo virginianus 2016-01-19 05:20 L3867728"
"2016-01-19 04:15",-114.9780393,"Black Mountain Golf course",TRUE,"Great Horned Owl",FALSE,"Bubo virginianus",TRUE,1,36.0206308,"L2734476","Bubo virginianus 2016-01-19 04:15 L2734476"
"2016-02-14 14:52",-119.7462103,"Mira Loma",TRUE,"Merlin",FALSE,"Falco columbarius",TRUE,1,39.48617,"L4280193","Falco columbarius 2016-02-14 14:52 L4280193"
"2016-02-14 12:05",-119.8447037,"Swan Lake Nature Study Area (IBA)",TRUE,"Merlin",FALSE,"Falco columbarius",FALSE,1,39.6573151,"L124349","Falco columbarius 2016-02-14 12:05 L124349"
"2016-02-13 13:45",-115.9037019,"Artesia",TRUE,"Merlin",FALSE,"Falco columbarius",TRUE,1,36.1176427,"L2463601","Falco columbarius 2016-02-13 13:45 L2463601"
"2016-02-12 10:50",-115.9562302,"Lakeside Casino and Campground",TRUE,"Merlin",FALSE,"Falco columbarius",TRUE,1,36.1403701,"L1943831","Falco columbarius 2016-02-12 10:50 L1943831"
"2016-02-11",-114.4944534,"Goshute Valley",TRUE,"Merlin",FALSE,"Falco columbarius",TRUE,1,40.9663168,"L1431770","Falco columbarius 2016-02-11 L1431770"
"2016-02-08 10:15",-115.0021416,"Henderson Bird Viewing Preserve",TRUE,"Merlin",FALSE,"Falco columbarius",FALSE,1,36.0749791,"L209342","Falco columbarius 2016-02-08 10:15 L209342"
"2016-02-04",-115.5368185,"Spring Creek--Pleasant Valley",TRUE,"Merlin",TRUE,"Falco columbarius",FALSE,1,40.7107354,"L269360","Falco columbarius 2016-02-04 L269360"
"2016-02-03 15:00",-114.1929245,"Montello",TRUE,"Merlin",FALSE,"Falco columbarius",FALSE,1,41.2620657,"L475179","Falco columbarius 2016-02-03 15:00 L475179"
"2016-02-02 09:15",-115.9973645,"Pahrump--Willow Creek Golf Course (defunct)",TRUE,"Merlin",FALSE,"Falco columbarius",FALSE,1,36.2020013,"L3176856","Falco columbarius 2016-02-02 09:15 L3176856"
"2016-02-02 09:03",-119.1801596,"Rte. 95A and Bowman Lane",TRUE,"Merlin",FALSE,"Falco columbarius",TRUE,1,39.0691643,"L4213728","Falco columbarius 2016-02-02 09:03 L4213728"
"2016-01-31 15:00",-119.831905,"Idlewild Park",TRUE,"Merlin",FALSE,"Falco columbarius",FALSE,1,39.5208387,"L345149","Falco columbarius 2016-01-31 15:00 L345149"
"2016-01-26 11:42",-119.7051001,"Carson River Park",TRUE,"Merlin",FALSE,"Falco columbarius",FALSE,1,39.1414778,"L668818","Falco columbarius 2016-01-26 11:42 L668818"
"2016-01-25 13:24",-119.7913599,"Country Estates Cir",TRUE,"Merlin",FALSE,"Falco columbarius",TRUE,1,39.4578123,"L3601283","Falco columbarius 2016-01-25 13:24 L3601283"
"2016-01-25 07:30",-114.4218698,"Overton WMA",TRUE,"Merlin",FALSE,"Falco columbarius",FALSE,1,36.5134605,"L474583","Falco columbarius 2016-01-25 07:30 L474583"
"2016-01-21 13:45",-115.359224,"US-NV-Indian Springs-21801 Alamo Rd - 36.4389x-115.3592",TRUE,"Merlin",FALSE,"Falco columbarius",TRUE,1,36.438928,"L4181184","Falco columbarius 2016-01-21 13:45 L4181184"
"2016-02-16 13:30",-115.022462,"Las Vegas Urban--Clark County Wetlands Park",TRUE,"Northern Harrier",FALSE,"Circus cyaneus",FALSE,2,36.1006947,"L160294","Circus cyaneus 2016-02-16 13:30 L160294"
"2016-02-16 12:20",-118.6883068,"S. Harmon Rd.",TRUE,"Northern Harrier",FALSE,"Circus cyaneus",TRUE,2,39.454354,"L2595620","Circus cyaneus 2016-02-16 12:20 L2595620"
"2016-02-16 10:37",-119.856496,"Swan Lake Nature Study Area (IBA)--Boardwalk",TRUE,"Northern Harrier",FALSE,"Circus cyaneus",FALSE,2,39.6531916,"L3572935","Circus cyaneus 2016-02-16 10:37 L3572935"
"2016-02-16 09:25",-118.6753464,"Indian Lakes",TRUE,"Northern Harrier",FALSE,"Circus cyaneus",TRUE,1,39.5878388,"L3113250","Circus cyaneus 2016-02-16 09:25 L3113250"
"2016-02-16 09:04",-119.1228032,"Mason Valley WMA",TRUE,"Northern Harrier",FALSE,"Circus cyaneus",FALSE,4,39.0901674,"L969157","Circus cyaneus 2016-02-16 09:04 L969157"
"2016-02-15 11:00",-115.0020477,"Henderson Bird Viewing Preserve",TRUE,"Northern Harrier",FALSE,"Circus cyaneus",TRUE,2,36.079046,"L4274666","Circus cyaneus 2016-02-15 11:00 L4274666"
"2016-02-15 09:49",-119.7797728,"Carson Valley (Douglas Co.)",TRUE,"Northern Harrier",FALSE,"Circus cyaneus",FALSE,1,38.9861336,"L573446","Circus cyaneus 2016-02-15 09:49 L573446"
"2016-02-15 09:35",-118.8137054,"Curry Rd. Residence",TRUE,"Northern Harrier",FALSE,"Circus cyaneus",TRUE,2,39.3743835,"L2118679","Circus cyaneus 2016-02-15 09:35 L2118679"
"2016-02-15 09:30",-116.44761,"Beowawe, Nevada",TRUE,"Northern Harrier",FALSE,"Circus cyaneus",TRUE,1,40.6650647,"L4279009","Circus cyaneus 2016-02-15 09:30 L4279009"
"2016-02-15 07:20",-115.0021416,"Henderson Bird Viewing Preserve",TRUE,"Northern Harrier",FALSE,"Circus cyaneus",FALSE,2,36.0749791,"L209342","Circus cyaneus 2016-02-15 07:20 L209342"
"2016-02-15 06:49",-116.3122084,"Ash Meadows National Wildlife Refuge, Amargosa Valley,",TRUE,"Northern Harrier",FALSE,"Circus cyaneus",TRUE,1,36.4181034,"L2470979","Circus cyaneus 2016-02-15 06:49 L2470979"
"2016-02-14 16:04",-119.7332203,"Damonte Ranch Wetlands--Veterans Pkwy Lake and Wetlands",TRUE,"Northern Harrier",FALSE,"Circus cyaneus",FALSE,1,39.4202899,"L3192597","Circus cyaneus 2016-02-14 16:04 L3192597"
"2016-02-14 15:37",-119.7066665,"Riverview Park and Empire Ranch Trail",TRUE,"Northern Harrier",FALSE,"Circus cyaneus",TRUE,1,39.164333,"L4090780","Circus cyaneus 2016-02-14 15:37 L4090780"
"2016-02-14 13:47",-119.8207998,"Muller Lane, Carson Valley",TRUE,"Northern Harrier",FALSE,"Circus cyaneus",TRUE,2,38.9710055,"L3277223","Circus cyaneus 2016-02-14 13:47 L3277223"
"2016-02-14 11:30",-118.578186,"Stillwater NWR",TRUE,"Northern Harrier",FALSE,"Circus cyaneus",FALSE,1,39.523111,"L598208","Circus cyaneus 2016-02-14 11:30 L598208"
"2016-02-14 10:00",-119.8447037,"Swan Lake Nature Study Area (IBA)",TRUE,"Northern Harrier",FALSE,"Circus cyaneus",FALSE,3,39.6573151,"L124349","Circus cyaneus 2016-02-14 10:00 L124349"
"2016-02-14 10:00",-118.5946763,"Humboldt WMA (Pershing Co.)",TRUE,"Northern Harrier",FALSE,"Circus cyaneus",FALSE,2,40.0434136,"L3036683","Circus cyaneus 2016-02-14 10:00 L3036683"
"2016-02-14 09:00",-119.0890503,"Mason Valley Wildlife Area",TRUE,"Northern Harrier",FALSE,"Circus cyaneus",TRUE,6,39.0746437,"L1966378","Circus cyaneus 2016-02-14 09:00 L1966378"
"2016-02-14 08:00",-115.02074,"clark county wetlands park",TRUE,"Northern Harrier",FALSE,"Circus cyaneus",TRUE,3,36.0964873,"L4264018","Circus cyaneus 2016-02-14 08:00 L4264018"
"2016-02-14 06:20",-115.359566,"Desert NWR--Corn Creek (Field Station)",TRUE,"Northern Harrier",FALSE,"Circus cyaneus",FALSE,1,36.438797,"L168656","Circus cyaneus 2016-02-14 06:20 L168656"
"2016-02-13 16:00",-119.7185326,"Damonte Ranch Wetlands",TRUE,"Northern Harrier",FALSE,"Circus cyaneus",FALSE,2,39.4275085,"L506053","Circus cyaneus 2016-02-13 16:00 L506053"
"2016-02-13 15:28",-119.7069132,"Carson River Park/Silver Saddle Ranch",TRUE,"Northern Harrier",FALSE,"Circus cyaneus",TRUE,1,39.1363102,"L891127","Circus cyaneus 2016-02-13 15:28 L891127"
"2016-02-13 08:40",-115.9438705,"Mountain Falls Back Pond & Agricultural Field",TRUE,"Northern Harrier",FALSE,"Circus cyaneus",TRUE,1,36.1456378,"L1943753","Circus cyaneus 2016-02-13 08:40 L1943753"
"2016-02-12 15:49",-119.8349894,"Lemmon Valley WWTP/Swan Lake",TRUE,"Northern Harrier",FALSE,"Circus cyaneus",TRUE,2,39.6529313,"L4257107","Circus cyaneus 2016-02-12 15:49 L4257107"
"2016-02-12 14:00",-119.8251343,"Carson Valley near Genoa, NV",TRUE,"Northern Harrier",FALSE,"Circus cyaneus",TRUE,2,38.9850328,"L1984379","Circus cyaneus 2016-02-12 14:00 L1984379"
"2016-02-12 11:30",-119.8347473,"Lemmon Valley WTP",TRUE,"Northern Harrier",FALSE,"Circus cyaneus",FALSE,5,39.6503269,"L875241","Circus cyaneus 2016-02-12 11:30 L875241"
"2016-02-12 08:50",-115.0211585,"Clark County Wetlands Park",TRUE,"Northern Harrier",FALSE,"Circus cyaneus",TRUE,2,36.1009028,"L2727767","Circus cyaneus 2016-02-12 08:50 L2727767"
"2016-02-12 08:15",-116.3232422,"Ash Meadows NWR--Crystal Reservoir",TRUE,"Northern Harrier",FALSE,"Circus cyaneus",FALSE,3,36.4078135,"L509291","Circus cyaneus 2016-02-12 08:15 L509291"
"2016-02-12 07:00",-119.8140182,"Reno",TRUE,"Northern Harrier",FALSE,"Circus cyaneus",TRUE,1,39.5296097,"L130603","Circus cyaneus 2016-02-12 07:00 L130603"
"2016-02-11 07:30",-115.4588759,"Spring Mountain Ranch SP",TRUE,"Northern Harrier",FALSE,"Circus cyaneus",FALSE,NA,36.0690146,"L337028","Circus cyaneus 2016-02-11 07:30 L337028"
"2016-02-11",-114.4944534,"Goshute Valley",TRUE,"Northern Harrier",FALSE,"Circus cyaneus",TRUE,2,40.9663168,"L1431770","Circus cyaneus 2016-02-11 L1431770"
"2016-02-10 13:29",-115.037979,"Wash at Vegas Valley Dr.",TRUE,"Northern Harrier",FALSE,"Circus cyaneus",TRUE,1,36.136491,"L4198761","Circus cyaneus 2016-02-10 13:29 L4198761"
"2016-02-09 14:00",-115.0187445,"Las Vegas Urban--Clark County Wetlands Park (Duck Creek)",TRUE,"Northern Harrier",FALSE,"Circus cyaneus",FALSE,1,36.0951639,"L866201","Circus cyaneus 2016-02-09 14:00 L866201"
"2016-02-09 07:30",-114.9564743,"Las Vegas Wash Wells Trail Head",TRUE,"Northern Harrier",FALSE,"Circus cyaneus",TRUE,NA,36.0942463,"L4217632","Circus cyaneus 2016-02-09 07:30 L4217632"
"2016-02-08 10:00",-115.3968287,"Desert NWR--Corn Creek (Entrance Rd)",TRUE,"Northern Harrier",FALSE,"Circus cyaneus",FALSE,1,36.4295699,"L510053","Circus cyaneus 2016-02-08 10:00 L510053"
"2016-02-07 10:22",-119.6551895,"Pyramid Lake--Warrior Pt.",TRUE,"Northern Harrier",FALSE,"Circus cyaneus",FALSE,1,40.0415464,"L478383","Circus cyaneus 2016-02-07 10:22 L478383"
"2016-02-05 13:30",-115.35902,"corn creek field station",TRUE,"Northern Harrier",FALSE,"Circus cyaneus",TRUE,2,36.438458,"L3917583","Circus cyaneus 2016-02-05 13:30 L3917583"
"2016-02-05 10:30",-114.4218698,"Overton WMA",TRUE,"Northern Harrier",FALSE,"Circus cyaneus",FALSE,3,36.5134605,"L474583","Circus cyaneus 2016-02-05 10:30 L474583"
"2016-02-05 09:00",-115.266594,"Las Vegas Urban--Floyd Lamb Park at Tule Springs",TRUE,"Northern Harrier",FALSE,"Circus cyaneus",FALSE,1,36.3249025,"L139900","Circus cyaneus 2016-02-05 09:00 L139900"
"2016-02-04 12:22",-119.74244,"US-NV-Reno-1831 Emerald Bay Dr - 39.4282x-119.7424",TRUE,"Northern Harrier",FALSE,"Circus cyaneus",TRUE,1,39.428169,"L4217303","Circus cyaneus 2016-02-04 12:22 L4217303"
"2016-02-04 10:00",-114.061861,"West Wendover - WTP",TRUE,"Northern Harrier",FALSE,"Circus cyaneus",TRUE,1,40.7244293,"L869689","Circus cyaneus 2016-02-04 10:00 L869689"
"2016-02-04",-115.5368185,"Spring Creek--Pleasant Valley",TRUE,"Northern Harrier",FALSE,"Circus cyaneus",FALSE,1,40.7107354,"L269360","Circus cyaneus 2016-02-04 L269360"
"2016-02-03 16:20",-115.2575684,"Jean Dry Lake",TRUE,"Northern Harrier",FALSE,"Circus cyaneus",FALSE,1,35.7832848,"L471834","Circus cyaneus 2016-02-03 16:20 L471834"
"2016-02-03 15:00",-114.1929245,"Montello",TRUE,"Northern Harrier",FALSE,"Circus cyaneus",FALSE,1,41.2620657,"L475179","Circus cyaneus 2016-02-03 15:00 L475179"
"2016-02-03 10:10",-118.8839149,"Fallon--Big Soda Lake",TRUE,"Northern Harrier",FALSE,"Circus cyaneus",FALSE,1,39.5198005,"L385244","Circus cyaneus 2016-02-03 10:10 L385244"
"2016-02-02 14:20",-118.744001,"US-NV-Fallon-7821-7845 Pasture Rd - 39.3496x-118.7440",TRUE,"Northern Harrier",FALSE,"Circus cyaneus",TRUE,1,39.349592,"L4213242","Circus cyaneus 2016-02-02 14:20 L4213242"
"2016-02-02 08:18",-115.995841,"Agricultural Fields",TRUE,"Northern Harrier",FALSE,"Circus cyaneus",TRUE,1,36.158667,"L4213874","Circus cyaneus 2016-02-02 08:18 L4213874"
"2016-02-01 14:45",-115.9514236,"Mountain Falls Back Path Area",TRUE,"Northern Harrier",FALSE,"Circus cyaneus",TRUE,2,36.1453606,"L1943678","Circus cyaneus 2016-02-01 14:45 L1943678"
"2016-02-01",-116.1281705,"Carlin - Humboldt River",TRUE,"Northern Harrier",FALSE,"Circus cyaneus",TRUE,1,40.7009105,"L877823","Circus cyaneus 2016-02-01 L877823"
"2016-01-29 14:00",-115.9228513,"Mountain Falls Golf Course Pahrump Nevada Nye County",TRUE,"Northern Harrier",FALSE,"Circus cyaneus",TRUE,1,36.115944,"L4258733","Circus cyaneus 2016-01-29 14:00 L4258733"
"2016-01-29 10:15",-118.9970398,"Private Ranch-Carson River",TRUE,"Northern Harrier",FALSE,"Circus cyaneus",TRUE,1,39.4764856,"L3338833","Circus cyaneus 2016-01-29 10:15 L3338833"
"2016-01-29 09:15",-119.7023521,"Sparks - Home (Canyon Vista Dr.)",TRUE,"Northern Harrier",FALSE,"Circus cyaneus",TRUE,1,39.579421,"L866414","Circus cyaneus 2016-01-29 09:15 L866414"
"2016-01-28 16:00",-114.8417187,"Lake Mead NRA--33 Hole Overlook",TRUE,"Northern Harrier",FALSE,"Circus cyaneus",FALSE,1,36.11529,"L1853103","Circus cyaneus 2016-01-28 16:00 L1853103"
"2016-01-28 13:29",-114.648954,"US-NV-Laughlin-9999 Needles Hwy - 35.1041x-114.6490",TRUE,"Northern Harrier",FALSE,"Circus cyaneus",TRUE,1,35.104111,"L4198881","Circus cyaneus 2016-01-28 13:29 L4198881"
"2016-01-28 08:45",-118.4736842,"Stillwater WMA",TRUE,"Northern Harrier",FALSE,"Circus cyaneus",FALSE,3,39.6290027,"L277761","Circus cyaneus 2016-01-28 08:45 L277761"
"2016-01-28 08:00",-115.1205987,"Pahranagat NWR--Headquarters",TRUE,"Northern Harrier",FALSE,"Circus cyaneus",FALSE,NA,37.2685716,"L517161","Circus cyaneus 2016-01-28 08:00 L517161"
"2016-01-25 13:52",-114.6423769,"Avi Casino - ag fields",TRUE,"Northern Harrier",FALSE,"Circus cyaneus",TRUE,1,35.0555752,"L4201252","Circus cyaneus 2016-01-25 13:52 L4201252"
"2016-01-25 12:20",-119.7709912,"Jake's Wetland",TRUE,"Northern Harrier",FALSE,"Circus cyaneus",TRUE,1,38.9627791,"L4188477","Circus cyaneus 2016-01-25 12:20 L4188477"
"2016-01-25 12:15",-119.7332954,"UNR Agriculture Fields",TRUE,"Northern Harrier",FALSE,"Circus cyaneus",FALSE,2,39.5078154,"L874810","Circus cyaneus 2016-01-25 12:15 L874810"
"2016-01-24 08:00",-119.832682,"Home",TRUE,"Northern Harrier",FALSE,"Circus cyaneus",TRUE,1,39.6178363,"L2657870","Circus cyaneus 2016-01-24 08:00 L2657870"
"2016-01-24",-119.485413,"Pyramid Lake",TRUE,"Northern Harrier",FALSE,"Circus cyaneus",FALSE,1,39.918681,"L320006","Circus cyaneus 2016-01-24 L320006"
"2016-01-24",-118.6377901,"Harmon Reservoir",TRUE,"Northern Harrier",FALSE,"Circus cyaneus",FALSE,1,39.4732392,"L3556249","Circus cyaneus 2016-01-24 L3556249"
"2016-01-23 10:45",-119.7247092,"NV: Reno: Damonte Ranch Wetlands",TRUE,"Northern Harrier",FALSE,"Circus cyaneus",TRUE,1,39.4241001,"L1897121","Circus cyaneus 2016-01-23 10:45 L1897121"
"2016-01-23 10:25",-118.5577154,"Stillwater Road, Fallon",TRUE,"Northern Harrier",FALSE,"Circus cyaneus",TRUE,1,39.5211095,"L2510865","Circus cyaneus 2016-01-23 10:25 L2510865"
"2016-01-22 09:35",-118.5910606,"Stillwater Rd.",TRUE,"Northern Harrier",FALSE,"Circus cyaneus",TRUE,2,39.4931789,"L2459076","Circus cyaneus 2016-01-22 09:35 L2459076"
"2016-01-19 07:15",-115.6538589,"Mountain Falls Front Pond Parkway in Nye County, Nevada",TRUE,"Northern Harrier",FALSE,"Circus cyaneus",TRUE,1,36.1957981,"L2023005","Circus cyaneus 2016-01-19 07:15 L2023005"
"2016-01-18 08:18",-114.999782,"Henderson Bird Viewing Preserve",TRUE,"Northern Harrier",FALSE,"Circus cyaneus",TRUE,1,36.0735851,"L1810850","Circus cyaneus 2016-01-18 08:18 L1810850"
"2016-02-04 09:30",-119.9322762,"US-Nevada-Incline Village-1179 Tahoe Blvd - 39.231x-119.932",TRUE,"Northern Pygmy-Owl",FALSE,"Glaucidium gnoma",TRUE,1,39.2307593,"L4216934","Glaucidium gnoma 2016-02-04 09:30 L4216934"
"2016-02-14 08:00",-115.02074,"clark county wetlands park",TRUE,"Osprey",FALSE,"Pandion haliaetus",TRUE,1,36.0964873,"L4264018","Pandion haliaetus 2016-02-14 08:00 L4264018"
"2016-02-14 07:15",-115.0021416,"Henderson Bird Viewing Preserve",TRUE,"Osprey",FALSE,"Pandion haliaetus",FALSE,1,36.0749791,"L209342","Pandion haliaetus 2016-02-14 07:15 L209342"
"2016-02-13 08:00",-114.8411179,"Veterens memorial park",TRUE,"Osprey",FALSE,"Pandion haliaetus",TRUE,1,35.9663364,"L3355862","Pandion haliaetus 2016-02-13 08:00 L3355862"
"2016-02-09 07:30",-114.9564743,"Las Vegas Wash Wells Trail Head",TRUE,"Osprey",FALSE,"Pandion haliaetus",TRUE,NA,36.0942463,"L4217632","Pandion haliaetus 2016-02-09 07:30 L4217632"
"2016-02-07 07:30",-115.022462,"Las Vegas Urban--Clark County Wetlands Park",TRUE,"Osprey",FALSE,"Pandion haliaetus",FALSE,NA,36.1006947,"L160294","Pandion haliaetus 2016-02-07 07:30 L160294"
"2016-02-13 09:30",-115.0021416,"Henderson Bird Viewing Preserve",TRUE,"Peregrine Falcon",FALSE,"Falco peregrinus",FALSE,1,36.0749791,"L209342","Falco peregrinus 2016-02-13 09:30 L209342"
"2016-02-13 07:30",-115.022462,"Las Vegas Urban--Clark County Wetlands Park",TRUE,"Peregrine Falcon",FALSE,"Falco peregrinus",FALSE,NA,36.1006947,"L160294","Falco peregrinus 2016-02-13 07:30 L160294"
"2016-02-12 07:00",-114.5711723,"Edgewater Casino",TRUE,"Peregrine Falcon",FALSE,"Falco peregrinus",TRUE,1,35.1614814,"L4247262","Falco peregrinus 2016-02-12 07:00 L4247262"
"2016-02-10 15:31",-119.831905,"Idlewild Park",TRUE,"Peregrine Falcon",FALSE,"Falco peregrinus",FALSE,1,39.5208387,"L345149","Falco peregrinus 2016-02-10 15:31 L345149"
"2016-02-10 13:29",-115.037979,"Wash at Vegas Valley Dr.",TRUE,"Peregrine Falcon",FALSE,"Falco peregrinus",TRUE,1,36.136491,"L4198761","Falco peregrinus 2016-02-10 13:29 L4198761"
"2016-02-09 12:20",-118.6883068,"S. Harmon Rd.",TRUE,"Peregrine Falcon",FALSE,"Falco peregrinus",TRUE,1,39.454354,"L2595620","Falco peregrinus 2016-02-09 12:20 L2595620"
"2016-02-09 07:30",-114.9564743,"Las Vegas Wash Wells Trail Head",TRUE,"Peregrine Falcon",FALSE,"Falco peregrinus",TRUE,NA,36.0942463,"L4217632","Falco peregrinus 2016-02-09 07:30 L4217632"
"2016-02-07 14:19",-119.763712,"Sparks - Rock Park",TRUE,"Peregrine Falcon",FALSE,"Falco peregrinus",FALSE,1,39.5200308,"L345154","Falco peregrinus 2016-02-07 14:19 L345154"
"2016-01-28 08:00",-115.1205987,"Pahranagat NWR--Headquarters",TRUE,"Peregrine Falcon",FALSE,"Falco peregrinus",FALSE,NA,37.2685716,"L517161","Falco peregrinus 2016-01-28 08:00 L517161"
"2016-01-22 10:05",-115.1865179,"Las Vegas Urban--Lorenzi Park",TRUE,"Peregrine Falcon",FALSE,"Falco peregrinus",FALSE,1,36.1794915,"L1357808","Falco peregrinus 2016-01-22 10:05 L1357808"
"2016-01-20 08:00",-115.266594,"Las Vegas Urban--Floyd Lamb Park at Tule Springs",TRUE,"Peregrine Falcon",FALSE,"Falco peregrinus",FALSE,1,36.3249025,"L139900","Falco peregrinus 2016-01-20 08:00 L139900"
"2016-02-14 14:00",-119.9055684,"Sierra Vista Park, Washoe County, NV",TRUE,"Prairie Falcon",FALSE,"Falco mexicanus",TRUE,1,39.530598,"L3872925","Falco mexicanus 2016-02-14 14:00 L3872925"
"2016-02-14 07:00",-119.8401466,"Lemmon Valley Ohio St",TRUE,"Prairie Falcon",FALSE,"Falco mexicanus",TRUE,1,39.6927804,"L3233723","Falco mexicanus 2016-02-14 07:00 L3233723"
"2016-02-13 12:00",-119.0890503,"Mason Valley Wildlife Area",TRUE,"Prairie Falcon",FALSE,"Falco mexicanus",TRUE,1,39.0746437,"L1966378","Falco mexicanus 2016-02-13 12:00 L1966378"
"2016-02-13 12:00",-115.0021416,"Henderson Bird Viewing Preserve",TRUE,"Prairie Falcon",FALSE,"Falco mexicanus",FALSE,1,36.0749791,"L209342","Falco mexicanus 2016-02-13 12:00 L209342"
"2016-02-13 10:45",-116.0032616,"Discovery Park",TRUE,"Prairie Falcon",FALSE,"Falco mexicanus",TRUE,1,36.1975909,"L3222777","Falco mexicanus 2016-02-13 10:45 L3222777"
"2016-02-13",-118.77699,"Fallon",TRUE,"Prairie Falcon",FALSE,"Falco mexicanus",TRUE,2,39.47352,"L192562","Falco mexicanus 2016-02-13 L192562"
"2016-02-07 11:00",-119.7295699,"Sparks Marina Park",TRUE,"Prairie Falcon",FALSE,"Falco mexicanus",FALSE,1,39.5348915,"L269695","Falco mexicanus 2016-02-07 11:00 L269695"
"2016-02-03 11:55",-119.2528796,"Alt 95  s. of Silver Springs",TRUE,"Prairie Falcon",FALSE,"Falco mexicanus",TRUE,1,39.3119005,"L4219454","Falco mexicanus 2016-02-03 11:55 L4219454"
"2016-01-29 10:15",-118.9970398,"Private Ranch-Carson River",TRUE,"Prairie Falcon",FALSE,"Falco mexicanus",TRUE,1,39.4764856,"L3338833","Falco mexicanus 2016-01-29 10:15 L3338833"
"2016-01-28 13:11",-115.267343,"US-NV-Searchlight-89046 - 35.6658x-115.2673",TRUE,"Prairie Falcon",FALSE,"Falco mexicanus",TRUE,1,35.66575,"L4198780","Falco mexicanus 2016-01-28 13:11 L4198780"
"2016-01-25 12:05",-119.7469962,"Waterloo Lane near East Fork Carson River",TRUE,"Prairie Falcon",FALSE,"Falco mexicanus",TRUE,1,38.9293689,"L4191651","Falco mexicanus 2016-01-25 12:05 L4191651"
"2016-01-24 11:04",-114.7968936,"Lake Mead NRA--Boulder Beach",TRUE,"Prairie Falcon",FALSE,"Falco mexicanus",FALSE,1,36.0449872,"L866916","Falco mexicanus 2016-01-24 11:04 L866916"
"2016-01-24 10:41",-119.69508,"Pyramid Lake--Willows",TRUE,"Prairie Falcon",FALSE,"Falco mexicanus",TRUE,1,40.07421,"L3974006","Falco mexicanus 2016-01-24 10:41 L3974006"
"2016-01-24 10:05",-118.8137054,"Curry Rd. Residence",TRUE,"Prairie Falcon",FALSE,"Falco mexicanus",TRUE,1,39.3743835,"L2118679","Falco mexicanus 2016-01-24 10:05 L2118679"
"2016-01-24",-119.6950783,"Pyramid Lake--Willows",TRUE,"Prairie Falcon",FALSE,"Falco mexicanus",FALSE,1,40.0742094,"L269368","Falco mexicanus 2016-01-24 L269368"
"2016-01-24",-119.6869898,"HWY 445 (Washoe)",TRUE,"Prairie Falcon",FALSE,"Falco mexicanus",TRUE,1,39.7493182,"L875239","Falco mexicanus 2016-01-24 L875239"
"2016-01-24",-119.5987344,"Pyramid Lake--Sutcliffe Marina",TRUE,"Prairie Falcon",FALSE,"Falco mexicanus",FALSE,1,39.9551322,"L869295","Falco mexicanus 2016-01-24 L869295"
"2016-01-24",-118.578186,"Stillwater NWR",TRUE,"Prairie Falcon",FALSE,"Falco mexicanus",FALSE,1,39.523111,"L598208","Falco mexicanus 2016-01-24 L598208"
"2016-01-23 13:14",-118.5748923,"Portuguese Lane Fields, Fallon",TRUE,"Prairie Falcon",FALSE,"Falco mexicanus",TRUE,1,39.522743,"L3283458","Falco mexicanus 2016-01-23 13:14 L3283458"
"2016-01-21 08:16",-115.9438705,"Mountain Falls Back Pond & Agricultural Field",TRUE,"Prairie Falcon",FALSE,"Falco mexicanus",TRUE,1,36.1456378,"L1943753","Falco mexicanus 2016-01-21 08:16 L1943753"
"2016-01-20 15:38",-119.7066665,"Riverview Park and Empire Ranch Trail",TRUE,"Prairie Falcon",FALSE,"Falco mexicanus",TRUE,1,39.164333,"L4090780","Falco mexicanus 2016-01-20 15:38 L4090780"
"2016-01-20 13:20",-119.6551895,"Pyramid Lake--Warrior Pt.",TRUE,"Prairie Falcon",FALSE,"Falco mexicanus",FALSE,1,40.0415464,"L478383","Falco mexicanus 2016-01-20 13:20 L478383"
"2016-01-19 08:30",-114.4218698,"Overton WMA",TRUE,"Prairie Falcon",FALSE,"Falco mexicanus",FALSE,1,36.5134605,"L474583","Falco mexicanus 2016-01-19 08:30 L474583"
"2016-02-15 09:49",-119.7797728,"Carson Valley (Douglas Co.)",TRUE,"Red-shouldered Hawk",FALSE,"Buteo lineatus",FALSE,2,38.9861336,"L573446","Buteo lineatus 2016-02-15 09:49 L573446"
"2016-02-13 07:52",-115.266594,"Las Vegas Urban--Floyd Lamb Park at Tule Springs",TRUE,"Red-shouldered Hawk",FALSE,"Buteo lineatus",FALSE,1,36.3249025,"L139900","Buteo lineatus 2016-02-13 07:52 L139900"
"2016-02-13 07:30",-115.9951544,"Discovery Park (twin ponds) Pahrump Valley Blvd to Red Butte",TRUE,"Red-shouldered Hawk",FALSE,"Buteo lineatus",TRUE,1,36.2020359,"L3377688","Buteo lineatus 2016-02-13 07:30 L3377688"
"2016-02-12 15:19",-119.940936,"Rabe Meadows",TRUE,"Red-shouldered Hawk",FALSE,"Buteo lineatus",FALSE,1,38.9738559,"L3614376","Buteo lineatus 2016-02-12 15:19 L3614376"
"2016-02-12 06:25",-116.0032616,"Discovery Park",TRUE,"Red-shouldered Hawk",FALSE,"Buteo lineatus",TRUE,2,36.1975909,"L3222777","Buteo lineatus 2016-02-12 06:25 L3222777"
"2016-02-11 07:30",-115.4588759,"Spring Mountain Ranch SP",TRUE,"Red-shouldered Hawk",FALSE,"Buteo lineatus",FALSE,NA,36.0690146,"L337028","Buteo lineatus 2016-02-11 07:30 L337028"
"2016-02-10 16:13",-119.864316,"Reno--Juniper Hill Rd",TRUE,"Red-shouldered Hawk",FALSE,"Buteo lineatus",TRUE,1,39.504289,"L835766","Buteo lineatus 2016-02-10 16:13 L835766"
"2016-02-10 07:59",-115.190249,"US-NV-Las Vegas-299-333 S Valley View Blvd - 36.1711x-115.1902",TRUE,"Red-shouldered Hawk",FALSE,"Buteo lineatus",TRUE,1,36.171091,"L4236830","Buteo lineatus 2016-02-10 07:59 L4236830"
"2016-02-10 06:25",-115.080674,"Wildhorse Golf Course",TRUE,"Red-shouldered Hawk",FALSE,"Buteo lineatus",TRUE,2,36.060942,"L3550231","Buteo lineatus 2016-02-10 06:25 L3550231"
"2016-02-08 13:45",-119.846535,"Oxbow Park",TRUE,"Red-shouldered Hawk",FALSE,"Buteo lineatus",FALSE,1,39.518784,"L157052","Buteo lineatus 2016-02-08 13:45 L157052"
"2016-02-06 13:40",-119.7295699,"Sparks Marina Park",TRUE,"Red-shouldered Hawk",FALSE,"Buteo lineatus",FALSE,1,39.5348915,"L269695","Buteo lineatus 2016-02-06 13:40 L269695"
"2016-02-06 13:00",-119.7388557,"Mira Loma",TRUE,"Red-shouldered Hawk",FALSE,"Buteo lineatus",TRUE,1,39.485341,"L2656228","Buteo lineatus 2016-02-06 13:00 L2656228"
"2016-02-05 15:26",-119.7066665,"Riverview Park and Empire Ranch Trail",TRUE,"Red-shouldered Hawk",FALSE,"Buteo lineatus",TRUE,1,39.164333,"L4090780","Buteo lineatus 2016-02-05 15:26 L4090780"
"2016-02-05 14:56",-119.868684,"Reno - Caughlin Parkway Trail",TRUE,"Red-shouldered Hawk",FALSE,"Buteo lineatus",FALSE,1,39.494368,"L3245542","Buteo lineatus 2016-02-05 14:56 L3245542"
"2016-02-02 09:15",-115.9973645,"Pahrump--Willow Creek Golf Course (defunct)",TRUE,"Red-shouldered Hawk",FALSE,"Buteo lineatus",FALSE,2,36.2020013,"L3176856","Buteo lineatus 2016-02-02 09:15 L3176856"
"2016-01-31 10:00",-119.8952419,"Mayberry Park",TRUE,"Red-shouldered Hawk",FALSE,"Buteo lineatus",FALSE,2,39.5031218,"L3274706","Buteo lineatus 2016-01-31 10:00 L3274706"
"2016-01-29 10:15",-118.9970398,"Private Ranch-Carson River",TRUE,"Red-shouldered Hawk",FALSE,"Buteo lineatus",TRUE,1,39.4764856,"L3338833","Buteo lineatus 2016-01-29 10:15 L3338833"
"2016-01-28 14:25",-118.5431671,"Stillwater road (Hwy. 116)",TRUE,"Red-shouldered Hawk",FALSE,"Buteo lineatus",TRUE,1,39.5224489,"L864408","Buteo lineatus 2016-01-28 14:25 L864408"
"2016-01-27 15:33",-119.7468567,"Mira Loma Park",TRUE,"Red-shouldered Hawk",FALSE,"Buteo lineatus",FALSE,1,39.490132,"L2504668","Buteo lineatus 2016-01-27 15:33 L2504668"
"2016-01-26 09:00",-119.831905,"Idlewild Park",TRUE,"Red-shouldered Hawk",FALSE,"Buteo lineatus",FALSE,1,39.5208387,"L345149","Buteo lineatus 2016-01-26 09:00 L345149"
"2016-01-24 09:15",-118.7955093,"Allen Rd.",TRUE,"Red-shouldered Hawk",FALSE,"Buteo lineatus",TRUE,1,39.3818141,"L2827743","Buteo lineatus 2016-01-24 09:15 L2827743"
"2016-01-23 16:33",-119.7092789,"Empire Ranch Trail",TRUE,"Red-shouldered Hawk",FALSE,"Buteo lineatus",TRUE,1,39.1798261,"L4091698","Buteo lineatus 2016-01-23 16:33 L4091698"
"2016-01-21 15:33",-119.7066605,"Carson River Park/Silver Saddle Ranch",TRUE,"Red-shouldered Hawk",FALSE,"Buteo lineatus",TRUE,1,39.1359229,"L1790905","Buteo lineatus 2016-01-21 15:33 L1790905"
"2016-01-21 08:16",-115.9438705,"Mountain Falls Back Pond & Agricultural Field",TRUE,"Red-shouldered Hawk",FALSE,"Buteo lineatus",TRUE,1,36.1456378,"L1943753","Buteo lineatus 2016-01-21 08:16 L1943753"
"2016-01-19 08:15",-119.707793,"EMPIRE RANCH/CARSON RIVER TRAIL",TRUE,"Red-shouldered Hawk",FALSE,"Buteo lineatus",TRUE,1,39.1817037,"L4175502","Buteo lineatus 2016-01-19 08:15 L4175502"
"2016-02-15 14:00",-114.10722,"Baker, Grand Army of the Republic Highway",TRUE,"Rough-legged Hawk",FALSE,"Buteo lagopus",TRUE,1,39.06152,"L2657742","Buteo lagopus 2016-02-15 14:00 L2657742"
